State,FIPS,County,County Seat(s),Population(010),Land Areakm,Land Areami,Water Areakm,Water Areami,Total Areakm,Total Areami,Lat,Long
AL,1001,Autauga,Prattville,54571.00,1539.58,594.44,25.78,9.95,1565.36,604.39,32.536,–86.6444
AL,1003,Baldwin,Bay Minette,182265.00,4117.52,1589.78,1133.19,437.53,5250.71,2027.31,30.659,–87.7460
AL,1005,Barbour,Clayton,27457.00,2291.82,884.88,50.87,19.64,2342.68,904.52,31.871,–85.4054
AL,1007,Bibb,Centreville,22915.00,1612.48,622.58,9.29,3.59,1621.77,626.17,33.016,–87.1271
AL,1009,Blount,Oneonta,57322.00,1669.96,644.78,15.16,5.85,1685.12,650.63,33.977,–86.5672
AL,1011,Bullock,Union Springs,10914.00,1613.06,622.81,6.06,2.34,1619.11,625.14,32.102,–85.7172
AL,1013,Butler,Greenville,20947.00,2011.98,776.83,2.73,1.05,2014.70,777.88,31.752,–86.6819
AL,1015,Calhoun,Anniston,118572.00,1569.19,605.87,16.62,6.42,1585.81,612.29,33.772,–85.8225
AL,1017,Chambers,Lafayette,34215.00,1545.01,596.53,17.05,6.58,1562.06,603.11,32.918,–85.3918
AL,1019,Cherokee,Centre,25989.00,1434.08,553.70,119.86,46.28,1553.94,599.98,34.070,–85.6542
AL,1021,Chilton,Clanton,43643.00,1794.48,692.85,20.59,7.95,1815.07,700.80,32.854,–86.7266
AL,1023,Choctaw,Butler,13859.00,2365.96,913.50,19.06,7.36,2385.01,920.86,31.991,–88.2488
AL,1025,Clarke,Grove Hill,25833.00,3207.61,1238.47,36.54,14.11,3244.15,1252.57,31.686,–87.8186
AL,1027,Clay,Ashland,13932.00,1564.25,603.96,5.29,2.04,1569.54,606.00,33.268,–85.8620
AL,1029,Cleburne,Heflin,14972.00,1450.65,560.10,2.37,0.91,1453.02,561.01,33.672,–85.5161
AL,1031,Coffee,"Elba, Enterprise",49948.00,1758.53,678.97,3.95,1.52,1762.47,680.50,31.402,–85.9892
AL,1033,Colbert,Tuscumbia,54428.00,1534.88,592.62,76.43,29.51,1611.31,622.13,34.703,–87.8014
AL,1035,Conecuh,Evergreen,13228.00,2201.90,850.16,6.65,2.57,2208.54,852.72,31.428,–86.9920
AL,1037,Coosa,Rockford,11539.00,1685.89,650.93,39.95,15.42,1725.84,666.35,32.931,–86.2434
AL,1039,Covington,Andalusia,37765.00,2668.87,1030.46,34.53,13.33,2703.40,1043.79,31.244,–86.4487
AL,1041,Crenshaw,Luverne,13906.00,1576.89,608.84,5.38,2.08,1582.26,610.92,31.733,–86.3192
AL,1043,Cullman,Cullman,80406.00,1903.23,734.84,52.27,20.18,1955.50,755.02,34.132,–86.8692
AL,1045,Dale,Ozark,50251.00,1453.37,561.15,4.02,1.55,1457.39,562.70,31.431,–85.6094
AL,1047,Dallas,Selma,43820.00,2534.81,978.70,39.14,15.11,2573.94,993.81,32.334,–87.1143
AL,1049,DeKalb,Fort Payne,71109.00,2012.66,777.09,4.12,1.59,2016.79,778.69,34.461,–85.8039
AL,1051,Elmore,Wetumpka,79303.00,1601.87,618.49,99.86,38.56,1701.73,657.04,32.597,–86.1427
AL,1053,Escambia,Brewton,38319.00,2447.75,945.08,20.87,8.06,2468.62,953.14,31.122,–87.1684
AL,1055,Etowah,Gadsden,104430.00,1385.62,534.99,35.32,13.64,1420.94,548.63,34.048,–86.0344
AL,1057,Fayette,Fayette,17241.00,1625.63,627.66,4.39,1.70,1630.02,629.36,33.732,–87.7520
AL,1059,Franklin,Russellville,31704.00,1641.59,633.82,32.90,12.70,1674.49,646.52,34.442,–87.8428
AL,1061,Geneva,Geneva,26790.00,1487.71,574.41,11.77,4.54,1499.48,578.95,31.091,–85.8243
AL,1063,Greene,Eutaw,9045.00,1676.01,647.11,33.23,12.83,1709.24,659.94,32.844,–87.9642
AL,1065,Hale,Greensboro,15760.00,1667.80,643.94,32.53,12.56,1700.33,656.50,32.753,–87.6230
AL,1067,Henry,Abbeville,17302.00,1454.93,561.75,16.99,6.56,1471.91,568.31,31.517,–85.2399
AL,1069,Houston,Dothan,101547.00,1501.74,579.82,4.74,1.83,1506.48,581.65,31.158,–85.2963
AL,1071,Jackson,Scottsboro,53227.00,2791.67,1077.87,126.66,48.90,2918.32,1126.77,34.764,–85.9774
AL,1073,Jefferson,Birmingham,658466.00,2878.19,1111.28,32.47,12.54,2910.67,1123.81,33.553,–86.8965
AL,1075,Lamar,Vernon,14564.00,1566.55,604.85,1.60,0.62,1568.15,605.46,33.787,–88.0874
AL,1077,Lauderdale,Florence,92709.00,1729.33,667.70,138.03,53.29,1867.36,720.99,34.904,–87.6509
AL,1079,Lawrence,Moulton,34339.00,1788.85,690.68,68.69,26.52,1857.54,717.20,34.530,–87.3218
AL,1081,Lee,Opelika,140247.00,1573.51,607.54,21.53,8.31,1595.04,615.85,32.604,–85.3530
AL,1083,Limestone,Athens,82782.00,1450.23,559.94,122.38,47.25,1572.61,607.19,34.810,–86.9814
AL,1085,Lowndes,Hayneville,11299.00,1854.20,715.91,23.72,9.16,1877.92,725.07,32.148,–86.6505
AL,1087,Macon,Tuskegee,21452.00,1577.01,608.89,11.19,4.32,1588.20,613.21,32.387,–85.6928
AL,1089,Madison,Huntsville,334811.00,2076.12,801.59,28.77,11.11,2104.89,812.70,34.764,–86.5510
AL,1091,Marengo,Linden,21027.00,2530.11,976.88,15.00,5.79,2545.11,982.67,32.248,–87.7910
AL,1093,Marion,Hamilton,30776.00,1922.53,742.29,3.31,1.28,1925.84,743.57,34.138,–87.8815
AL,1095,Marshall,Guntersville,93019.00,1465.52,565.84,148.50,57.34,1614.03,623.18,34.310,–86.3216
AL,1097,Mobile,Mobile,412992.00,3184.22,1229.44,1073.75,414.58,4257.97,1644.01,30.685,–88.1965
AL,1099,Monroe,Monroeville,23068.00,2656.49,1025.68,22.64,8.74,2679.13,1034.42,31.580,–87.3832
AL,1101,Montgomery,Montgomery,229363.00,2031.19,784.25,40.57,15.67,2071.76,799.91,32.204,–86.2038
AL,1103,Morgan,Decatur,119490.00,1500.48,579.34,51.07,19.72,1551.54,599.05,34.454,–86.8464
AL,1105,Perry,Marion,10591.00,1863.92,719.66,10.92,4.22,1874.84,723.88,32.639,–87.2938
AL,1107,Pickens,Carrollton,19746.00,2282.84,881.41,22.58,8.72,2305.42,890.13,33.297,–88.0968
AL,1109,Pike,Troy,32899.00,1740.72,672.09,2.36,0.91,1743.08,673.01,31.799,–85.9419
AL,1111,Randolph,Wedowee,22913.00,1503.62,580.55,9.29,3.59,1512.90,584.14,33.296,–85.4640
AL,1113,Russell,Phenix City,52947.00,1660.55,641.14,15.67,6.05,1676.22,647.19,32.290,–85.1869
AL,1115,St. Clair,"Ashville, Pell City",83593.00,1636.62,631.90,56.30,21.74,1692.92,653.64,33.713,–86.3156
AL,1117,Shelby,Columbiana,195085.00,2032.96,784.93,63.70,24.60,2096.66,809.53,33.263,–86.6781
AL,1119,Sumter,Livingston,13763.00,2341.06,903.89,24.44,9.44,2365.49,913.32,32.597,–88.2000
AL,1121,Talladega,Talladega,82291.00,1908.24,736.78,60.94,23.53,1969.18,760.31,33.369,–86.1758
AL,1123,Tallapoosa,Dadeville,41616.00,1855.78,716.52,128.81,49.73,1984.59,766.25,32.863,–85.7995
AL,1125,Tuscaloosa,Tuscaloosa,194656.00,3423.33,1321.76,76.40,29.50,3499.73,1351.25,33.290,–87.5228
AL,1127,Walker,Jasper,67023.00,2049.18,791.19,36.26,14.00,2085.44,805.19,33.792,–87.3010
AL,1129,Washington,Chatom,17581.00,2797.72,1080.21,21.65,8.36,2819.37,1088.57,31.407,–88.2020
AL,1131,Wilcox,Camden,11670.00,2301.20,888.50,48.99,18.91,2350.19,907.41,31.990,–87.3022
AL,1133,Winston,Double Springs,24484.00,1587.61,612.98,48.92,18.89,1636.53,631.87,34.156,–87.3641
AK,2013,Aleutians East,Sand Point,3141.00,18083.15,6981.94,20792.21,8027.92,38875.36,15009.86,55.244,–161.950
AK,2016,Aleutians West [4],—,5561.00,11370.76,4390.28,25190.64,9726.16,36561.41,14116.44,51.959,178.3388
AK,2020,Anchorage,Anchorage,291826.00,4415.11,1704.68,663.86,256.32,5078.97,1961.00,61.178,–149.274
AK,2050,Bethel [4],—,17013.00,105075.82,40570.00,12779.52,4934.20,117855.35,45504.21,60.929,–160.153
AK,2060,Bristol Bay,Naknek,997.00,1304.95,503.84,993.83,383.72,2298.78,887.56,58.731,–156.986
AK,2068,Denali,Healy,1826.00,33026.00,12751.41,66.07,25.51,33092.07,12776.92,63.683,–150.026
AK,2070,Dillingham [4],—,4847.00,48092.91,18568.78,6077.22,2346.43,54170.14,20915.21,59.825,–158.602
AK,2090,Fairbanks North Star,Fairbanks,97581.00,19005.87,7338.21,273.19,105.48,19279.06,7443.69,64.691,–146.599
AK,2100,Haines,Haines,2508.00,6005.15,2318.60,1053.88,406.90,7059.02,2725.50,59.100,–135.578
AK,2105,Hoonah,,,,,,,,,,
AK,2110,Juneau,Juneau,31275.00,6997.97,2701.93,1429.58,551.96,8427.54,3253.89,58.373,–134.178
AK,2122,Kenai Peninsula,Soldotna,55400.00,41634.92,16075.33,22473.29,8676.99,64108.21,24752.32,60.366,–152.321
AK,2130,Ketchikan Gateway,Ketchikan,13477.00,12583.23,4858.41,4649.41,1795.15,17232.65,6653.56,55.450,–131.106
AK,2150,Kodiak Island,Kodiak,13592.00,16963.33,6549.58,14173.06,5472.25,31136.39,12021.83,57.554,–153.630
AK,2164,Lake and Peninsula,King Salmon [5],1631.00,61258.42,23652.01,24010.46,9270.49,85268.88,32922.50,58.205,–156.705
AK,2170,Matanuska,,,,,,,,,,
AK,2180,Nome [4],—,9492.00,59470.69,22961.76,13768.01,5315.86,73238.70,28277.62,64.784,–164.188
AK,2185,North Slope,Barrow,9430.00,229720.05,88695.41,15801.18,6100.87,245521.23,94796.28,69.449,–153.472
AK,2188,Northwest Arctic,Kotzebue,7523.00,92132.57,35572.58,13406.69,5176.35,105539.25,40748.94,67.005,–160.021
AK,2195,Petersburg [4],—,3815.00,8500.29,3281.98,6221.37,2402.08,14721.66,5684.07,56.640,–133.527
AK,2198,Prince of Wales,,,,,,,,,,
AK,2220,Sitka,Sitka,8881.00,7434.14,2870.34,5027.40,1941.09,12461.55,4811.43,57.143,–135.332
AK,2230,Skagway,Skagway,968.00,1171.52,452.33,30.33,11.71,1201.85,464.04,59.575,–135.335
AK,2240,Southeast Fairbanks [4],—,7029.00,64150.92,24768.81,752.80,290.66,64903.71,25059.46,63.865,–143.218
AK,2261,Valdez,,,,,,,,,,
AK,2270,Wade Hampton [4],—,7459.00,44240.71,17081.43,6712.00,2591.52,50952.71,19672.95,62.283,–163.190
AK,2275,Wrangell,Wrangell,2369.00,6582.41,2541.48,2384.28,920.57,8966.69,3462.06,56.279,–132.040
AK,2282,Yakutat,Yakutat,662.00,19812.00,7649.46,4696.71,1813.41,24508.71,9462.87,59.999,–140.239
AK,2290,Yukon,,,,,,,,,,
AZ,4001,Apache,St. Johns,71518.00,29001.44,11197.52,54.18,20.92,29055.62,11218.44,35.386,–109.493
AZ,4003,Cochise,Bisbee,131346.00,15969.06,6165.69,137.03,52.91,16106.09,6218.60,31.882,–109.754
AZ,4005,Coconino,Flagstaff,134421.00,48222.69,18618.89,109.96,42.46,48332.65,18661.34,35.830,–111.773
AZ,4007,Gila,Globe,53597.00,12322.99,4757.93,97.11,37.50,12420.10,4795.43,33.790,–110.811
AZ,4009,Graham,Safford,37220.00,11972.47,4622.60,47.83,18.47,12020.31,4641.07,32.932,–109.878
AZ,4011,Greenlee,Clifton,8437.00,4773.67,1843.13,13.75,5.31,4787.42,1848.43,33.239,–109.242
AZ,4012,La Paz,Parker,20489.00,11653.98,4499.63,36.58,14.12,11690.57,4513.75,33.728,–114.038
AZ,4013,Maricopa,Phoenix,3817117.00,23828.26,9200.14,62.80,24.25,23891.06,9224.39,33.347,–112.495
AZ,4015,Mohave,Kingman,200186.00,34475.55,13311.08,387.37,149.57,34862.92,13460.65,35.718,–113.749
AZ,4017,Navajo,Holbrook,107449.00,25771.47,9950.42,24.08,9.30,25795.55,9959.72,35.391,–110.320
AZ,4019,Pima,Tucson,980263.00,23794.31,9187.04,5.34,2.06,23799.65,9189.10,32.128,–111.783
AZ,4021,Pinal,Florence,375770.00,13896.87,5365.61,22.33,8.62,13919.20,5374.23,32.919,–111.367
AZ,4023,Santa Cruz,Nogales,47420.00,3203.60,1236.92,3.09,1.19,3206.69,1238.11,31.526,–110.845
AZ,4025,Yavapai,Prescott,211033.00,21039.77,8123.50,11.50,4.44,21051.27,8127.94,34.630,–112.573
AZ,4027,Yuma,Yuma,195751.00,14281.17,5513.99,13.25,5.12,14294.43,5519.11,32.774,–113.910
AR,5001,Arkansas,"De Witt, Stuttgart",19019.00,2560.90,988.77,116.50,44.98,2677.40,1033.75,34.290,–91.3765
AR,5003,Ashley,Hamburg,21853.00,2396.64,925.35,39.31,15.18,2435.95,940.53,33.191,–91.7722
AR,5005,Baxter,Mountain Home,41513.00,1435.59,554.28,84.00,32.43,1519.59,586.72,36.281,–92.3304
AR,5007,Benton,Bentonville,221339.00,2194.65,847.36,94.66,36.55,2289.31,883.91,36.338,–94.2561
AR,5009,Boone,Harrison,36903.00,1528.69,590.23,30.04,11.60,1558.74,601.83,36.304,–93.0792
AR,5011,Bradley,Warren,11508.00,1681.50,649.23,9.55,3.69,1691.05,652.92,33.464,–92.1681
AR,5013,Calhoun,Hampton,5368.00,1628.02,628.58,9.93,3.83,1637.94,632.41,33.560,–92.5138
AR,5015,Carroll,"Berryville, Eureka Springs",27446.00,1631.92,630.09,22.57,8.71,1654.48,638.80,36.338,–93.5416
AR,5017,Chicot,Lake Village,11800.00,1668.74,644.30,120.39,46.48,1789.13,690.79,33.267,–91.2971
AR,5019,Clark,Arkadelphia,22995.00,2243.12,866.07,43.40,16.76,2286.52,882.83,34.053,–93.1762
AR,5021,Clay,"Piggott, Corning",16083.00,1656.21,639.47,5.11,1.97,1661.31,641.44,36.367,–90.4187
AR,5023,Cleburne,Heber Springs,25970.00,1434.06,553.69,99.02,38.23,1533.07,591.92,35.566,–92.0599
AR,5025,Cleveland,Rison,8689.00,1548.25,597.78,2.50,0.97,1550.75,598.75,33.893,–92.1887
AR,5027,Columbia,Magnolia,24552.00,1984.07,766.05,1.81,0.70,1985.88,766.75,33.215,–93.2269
AR,5029,Conway,Morrilton,21273.00,1430.32,552.25,37.34,14.42,1467.66,566.67,35.266,–92.6892
AR,5031,Craighead,"Lake City, Jonesboro",96443.00,1831.66,707.21,14.16,5.47,1845.82,712.67,35.828,–90.6304
AR,5033,Crawford,Van Buren,61948.00,1536.11,593.09,28.87,11.15,1564.98,604.24,35.583,–94.2362
AR,5035,Crittenden,Marion,50902.00,1579.27,609.76,68.94,26.62,1648.21,636.38,35.212,–90.3153
AR,5037,Cross,Wynne,17870.00,1596.42,616.38,15.35,5.93,1611.77,622.31,35.291,–90.7738
AR,5039,Dallas,Fordyce,8116.00,1728.52,667.39,1.86,0.72,1730.39,668.11,33.968,–92.6539
AR,5041,Desha,Arkansas City,13008.00,1989.50,768.15,133.06,51.37,2122.56,819.53,33.829,–91.2444
AR,5043,Drew,Monticello,18509.00,2145.43,828.36,18.92,7.31,2164.35,835.66,33.587,–91.7227
AR,5045,Faulkner,Conway,113237.00,1678.01,647.88,41.93,16.19,1719.94,664.07,35.146,–92.3246
AR,5047,Franklin,"Charleston, Ozark",18125.00,1576.93,608.86,27.93,10.79,1604.87,619.64,35.509,–93.8876
AR,5049,Fulton,Salem,12245.00,1601.11,618.19,5.53,2.13,1606.64,620.33,36.383,–91.8192
AR,5051,Garland,Hot Springs,96024.00,1755.45,677.78,147.21,56.84,1902.66,734.62,34.579,–93.1469
AR,5053,Grant,Sheridan,17853.00,1636.38,631.81,2.90,1.12,1639.28,632.93,34.288,–92.4239
AR,5055,Greene,Paragould,42090.00,1496.23,577.70,4.83,1.86,1501.06,579.56,36.120,–90.5652
AR,5057,Hempstead,Hope,22609.00,1884.27,727.52,35.37,13.66,1919.64,741.18,33.729,–93.6658
AR,5059,Hot Spring,Malvern,32923.00,1593.37,615.20,18.05,6.97,1611.42,622.17,34.315,–92.9441
AR,5061,Howard,Nashville,13789.00,1524.35,588.55,17.51,6.76,1541.86,595.31,34.083,–93.9909
AR,5063,Independence,Batesville,36647.00,1978.63,763.95,19.59,7.57,1998.22,771.52,35.737,–91.5599
AR,5065,Izard,Melbourne,13696.00,1503.69,580.58,8.91,3.44,1512.60,584.02,36.095,–91.9136
AR,5067,Jackson,Newport,17997.00,1641.89,633.94,19.59,7.56,1661.48,641.50,35.597,–91.2231
AR,5069,Jefferson,Pine Bluff,77435.00,2255.22,870.75,111.45,43.03,2366.67,913.78,34.278,–91.9307
AR,5071,Johnson,Clarksville,25540.00,1708.88,659.80,59.42,22.94,1768.30,682.74,35.573,–93.4663
AR,5073,Lafayette,Lewisville,7645.00,1368.21,528.27,43.54,16.81,1411.75,545.08,33.241,–93.6116
AR,5075,Lawrence,Walnut Ridge,17415.00,1521.91,587.61,12.25,4.73,1534.16,592.34,36.041,–91.1011
AR,5077,Lee,Marianna,10424.00,1560.78,602.62,43.72,16.88,1604.50,619.50,34.780,–90.7792
AR,5079,Lincoln,Star City,14134.00,1454.32,561.52,27.63,10.67,1481.95,572.19,33.958,–91.7276
AR,5081,Little River,Ashdown,13171.00,1378.53,532.25,84.21,32.51,1462.74,564.77,33.699,–94.2297
AR,5083,Logan,"Booneville, Paris",22353.00,1834.03,708.13,60.70,23.44,1894.73,731.56,35.219,–93.7205
AR,5085,Lonoke,Lonoke,68356.00,1996.18,770.73,83.17,32.11,2079.35,802.84,34.755,–91.8941
AR,5087,Madison,Huntsville,15717.00,2160.71,834.26,7.32,2.83,2168.03,837.08,36.013,–93.7240
AR,5089,Marion,Yellville,16653.00,1546.25,597.01,112.18,43.31,1658.42,640.32,36.267,–92.6785
AR,5091,Miller,Texarkana,43462.00,1620.24,625.58,31.26,12.07,1651.50,637.65,33.306,–93.9015
AR,5093,Mississippi,"Blytheville, Osceola",46480.00,2332.48,900.57,49.83,19.24,2382.30,919.81,35.767,–90.0522
AR,5095,Monroe,Clarendon,8149.00,1572.44,607.12,36.72,14.18,1609.15,621.30,34.680,–91.2033
AR,5097,Montgomery,Mount Ida,9487.00,2019.88,779.88,52.86,20.41,2072.74,800.29,34.546,–93.6641
AR,5099,Nevada,Prescott,8997.00,1600.19,617.84,7.26,2.80,1607.45,620.64,33.667,–93.3050
AR,5101,Newton,Jasper,8330.00,2126.11,820.90,5.93,2.29,2132.04,823.19,35.910,–93.2150
AR,5103,Ouachita,Camden,26120.00,1897.90,732.78,18.05,6.97,1915.95,739.75,33.591,–92.8784
AR,5105,Perry,Perryville,10445.00,1428.13,551.40,23.65,9.13,1451.78,560.53,34.946,–92.9268
AR,5107,Phillips,Helena,,,,,,,,,
AR,5109,Pike,Murfreesboro,11291.00,1555.59,600.62,35.00,13.51,1590.59,614.13,34.158,–93.6586
AR,5111,Poinsett,Harrisburg,24583.00,1964.22,758.39,13.52,5.22,1977.74,763.61,35.569,–90.6805
AR,5113,Polk,Mena,20662.00,2221.38,857.68,12.39,4.78,2233.77,862.46,34.491,–94.2308
AR,5115,Pope,Russellville,61754.00,2104.49,812.55,47.21,18.23,2151.70,830.78,35.455,–93.0315
AR,5117,Prairie,"Des Arc, De Valls Bluff",8715.00,1678.20,647.96,71.63,27.66,1749.83,675.61,34.828,–91.5572
AR,5119,Pulaski,Little Rock,382748.00,1967.78,759.76,124.06,47.90,2091.84,807.66,34.774,–92.3165
AR,5121,Randolph,Pocahontas,17969.00,1689.17,652.19,9.97,3.85,1699.13,656.04,36.341,–91.0284
AR,5123,St. Francis,Forrest City,28258.00,1644.05,634.77,20.05,7.74,1664.10,642.51,35.014,–90.7421
AR,5125,Saline,Benton,107118.00,1874.13,723.60,17.84,6.89,1891.96,730.49,34.649,–92.6744
AR,5127,Scott,Waldron,11233.00,2311.10,892.32,14.90,5.75,2326.00,898.07,34.859,–94.0636
AR,5129,Searcy,Marshall,8195.00,1725.18,666.10,6.26,2.42,1731.43,668.51,35.910,–92.6993
AR,5131,Sebastian,"Greenwood, Fort Smith",125744.00,1377.64,531.91,36.91,14.25,1414.55,546.16,35.197,–94.2749
AR,5133,Sevier,De Queen,17058.00,1463.67,565.13,41.83,16.15,1505.50,581.28,33.995,–94.2432
AR,5135,Sharp,Ash Flat,17264.00,1565.49,604.44,5.17,2.00,1570.66,606.44,36.173,–91.4710
AR,5137,Stone,Mountain View,12394.00,1570.58,606.41,7.84,3.03,1578.42,609.43,35.857,–92.1404
AR,5139,Union,El Dorado,41639.00,2691.55,1039.21,41.40,15.99,2732.95,1055.20,33.168,–92.5981
AR,5141,Van Buren,Clinton,17295.00,1834.08,708.14,41.81,16.14,1875.89,724.28,35.583,–92.5159
AR,5143,Washington,Fayetteville,203065.00,2439.68,941.97,27.05,10.44,2466.73,952.41,35.971,–94.2184
AR,5145,White,Searcy,77076.00,2680.83,1035.08,18.31,7.07,2699.14,1042.15,35.255,–91.7531
AR,5147,Woodruff,Augusta,7260.00,1519.78,586.79,18.71,7.22,1538.49,594.01,35.189,–91.2444
AR,5149,Yell,"Dardanelle, Danville",22185.00,2408.65,929.98,48.88,18.87,2457.53,948.86,34.998,–93.4083
CA,6001,Alameda,Oakland,1510271.00,1914.05,739.02,213.19,82.31,2127.23,821.33,37.648,–121.913
CA,6003,Alpine,Markleeville,1175.00,1912.27,738.33,12.56,4.85,1924.83,743.18,38.618,–119.798
CA,6005,Amador,Jackson,38091.00,1539.96,594.58,29.46,11.37,1569.42,605.96,38.444,–120.653
CA,6007,Butte,Oroville,220000.00,4238.42,1636.46,105.33,40.67,4343.75,1677.13,39.666,–121.601
CA,6009,Calaveras,San Andreas,45578.00,2641.82,1020.01,43.81,16.92,2685.63,1036.93,38.188,–120.555
CA,6011,Colusa,Colusa,21419.00,2980.38,1150.73,14.58,5.63,2994.96,1156.36,39.178,–122.237
CA,6013,Contra Costa,Martinez,1049025.00,1854.27,715.94,227.49,87.83,2081.75,803.77,37.919,–121.951
CA,6015,Del Norte,Crescent City,28610.00,2606.49,1006.37,578.53,223.37,3185.02,1229.74,41.750,–123.980
CA,6017,El Dorado,Placerville,181058.00,4423.40,1707.88,203.24,78.47,4626.64,1786.36,38.786,–120.534
CA,6019,Fresno,Fresno,930450.00,15431.13,5957.99,137.82,53.21,15568.94,6011.20,36.761,–119.655
CA,6021,Glenn,Willows,28122.00,3403.11,1313.95,33.75,13.03,3436.86,1326.98,39.603,–122.401
CA,6023,Humboldt,Eureka,134623.00,9241.05,3567.99,1254.26,484.27,10495.30,4052.26,40.707,–123.925
CA,6025,Imperial,El Centro,174528.00,10817.35,4176.60,790.25,305.12,11607.60,4481.72,33.041,–115.355
CA,6027,Inyo,Independence,18546.00,26368.35,10180.88,119.21,46.03,26487.56,10226.91,36.562,–117.403
CA,6029,Kern,Bakersfield,839631.00,21061.57,8131.92,79.58,30.73,21141.14,8162.64,35.347,–118.729
CA,6031,Kings,Hanford,152982.00,3598.58,1389.42,5.47,2.11,3604.05,1391.53,36.072,–119.815
CA,6033,Lake,Lakeport,64665.00,3254.23,1256.46,188.96,72.96,3443.19,1329.42,39.095,–122.746
CA,6035,Lassen,Susanville,34895.00,11761.61,4541.18,463.44,178.94,12225.05,4720.12,40.721,–120.629
CA,6037,Los Angeles,Los Angeles,9818605.00,10509.87,4057.88,1795.01,693.06,12304.88,4750.94,34.196,–118.261
CA,6039,Madera,Madera,150865.00,5534.98,2137.07,41.96,16.20,5576.94,2153.27,37.210,–119.749
CA,6041,Marin,San Rafael,252409.00,1347.59,520.31,797.42,307.89,2145.01,828.19,38.052,–122.745
CA,6043,Mariposa,Mariposa,18251.00,3752.42,1448.82,36.27,14.00,3788.69,1462.82,37.570,–119.912
CA,6045,Mendocino,Ukiah,87841.00,9081.39,3506.34,962.95,371.80,10044.34,3878.14,39.432,–123.442
CA,6047,Merced,Merced,255793.00,5011.56,1934.97,112.76,43.54,5124.32,1978.51,37.195,–120.722
CA,6049,Modoc,Alturas,9686.00,10146.98,3917.77,739.77,285.63,10886.75,4203.40,41.593,–120.718
CA,6051,Mono,Bridgeport,14202.00,7896.83,3048.98,214.70,82.89,8111.52,3131.88,37.916,–118.875
CA,6053,Monterey,Salinas,415057.00,8496.70,3280.60,1270.71,490.63,9767.42,3771.22,36.240,–121.315
CA,6055,Napa,Napa,136484.00,1938.25,748.36,104.17,40.22,2042.42,788.58,38.507,–122.325
CA,6057,Nevada,Nevada City,98764.00,2480.62,957.77,41.52,16.03,2522.13,973.80,39.295,–120.773
CA,6059,Orange,Santa Ana,3010232.00,2047.56,790.57,407.92,157.50,2455.48,948.07,33.676,–117.777
CA,6061,Placer,Auburn,348432.00,3644.14,1407.01,247.21,95.45,3891.34,1502.46,39.062,–120.722
CA,6063,Plumas,Quincy,20007.00,6612.35,2553.04,156.40,60.39,6768.75,2613.43,39.995,–120.829
CA,6065,Riverside,Riverside,2189641.00,18664.70,7206.48,251.07,96.94,18915.77,7303.42,33.730,–116.002
CA,6067,Sacramento,Sacramento,1418788.00,2498.42,964.64,76.08,29.37,2574.49,994.02,38.450,–121.340
CA,6069,San Benito,Hollister,55269.00,3596.74,1388.71,4.56,1.76,3601.30,1390.47,36.611,–121.085
CA,6071,San Bernardino,San Bernardino,2035210.00,51947.23,20056.94,124.03,47.89,52071.26,20104.83,34.857,–116.181
CA,6073,San Diego,San Diego,3095313.00,10895.12,4206.63,826.35,319.06,11721.47,4525.69,33.024,–116.776
CA,6075,San Francisco,San Francisco,805235.00,121.40,46.87,479.19,185.02,600.59,231.89,37.727,–123.032
CA,6077,San Joaquin,Stockton,685306.00,3603.51,1391.32,91.11,35.18,3694.62,1426.50,37.935,–121.272
CA,6079,San Luis Obispo,San Luis Obispo,269637.00,8543.25,3298.57,820.98,316.98,9364.22,3615.55,35.385,–120.447
CA,6081,San Mateo,Redwood City,718451.00,1161.37,448.41,757.70,292.55,1919.08,740.96,37.415,–122.371
CA,6083,Santa Barbara,Santa Barbara,423895.00,7083.84,2735.09,2729.83,1053.99,9813.67,3789.08,34.537,–120.038
CA,6085,Santa Clara,San Jose,1781642.00,3341.34,1290.10,36.18,13.97,3377.52,1304.07,37.221,–121.690
CA,6087,Santa Cruz,Santa Cruz,262382.00,1152.99,445.17,419.57,162.00,1572.56,607.17,37.012,–122.007
CA,6089,Shasta,Redding,177223.00,9778.25,3775.40,186.53,72.02,9964.78,3847.42,40.761,–122.043
CA,6091,Sierra,Downieville,3240.00,2468.81,953.21,23.30,9.00,2492.11,962.21,39.577,–120.521
CA,6093,Siskiyou,Yreka,44900.00,16259.65,6277.89,179.89,69.46,16439.54,6347.34,41.588,–122.533
CA,6095,Solano,Fairfield,413344.00,2128.36,821.77,218.67,84.43,2347.03,906.19,38.267,–121.939
CA,6097,Sonoma,Santa Rosa,483878.00,4081.43,1575.85,497.53,192.10,4578.96,1767.95,38.533,–122.945
CA,6099,Stanislaus,Modesto,514453.00,3871.58,1494.83,51.44,19.86,3923.02,1514.69,37.562,–121.002
CA,6101,Sutter,Yuba City,94737.00,1560.24,602.41,15.75,6.08,1575.98,608.49,39.035,–121.702
CA,6103,Tehama,Red Bluff,63463.00,7639.71,2949.71,32.28,12.46,7671.99,2962.17,40.126,–122.232
CA,6105,Trinity,Weaverville,13786.00,8234.23,3179.25,73.41,28.34,8307.64,3207.60,40.648,–123.114
CA,6107,Tulare,Visalia,442179.00,12494.66,4824.22,37.39,14.44,12532.05,4838.65,36.230,–118.780
CA,6109,Tuolumne,Sonora,55365.00,5752.06,2220.88,138.68,53.55,5890.75,2274.43,38.021,–119.964
CA,6111,Ventura,Ventura,823318.00,4773.69,1843.13,945.99,365.25,5719.68,2208.38,34.359,–119.133
CA,6113,Yolo,Woodland,200849.00,2628.03,1014.69,22.97,8.87,2651.00,1023.56,38.679,–121.903
CA,6115,Yuba,Marysville,72155.00,1636.45,631.84,31.00,11.97,1667.45,643.81,39.270,–121.344
CO,8001,Adams,Brighton,441603.00,3024.21,1167.65,42.07,16.24,3066.28,1183.90,39.874,–104.331
CO,8003,Alamosa,Alamosa,15445.00,1871.64,722.64,1.81,0.70,1873.45,723.34,37.568,–105.788
CO,8005,Arapahoe,Littleton,572003.00,2067.07,798.10,19.00,7.34,2086.07,805.44,39.645,–104.331
CO,8007,Archuleta,Pagosa Springs,12084.00,3496.94,1350.18,13.83,5.34,3510.77,1355.51,37.202,–107.050
CO,8009,Baca,Springfield,3788.00,6617.33,2554.97,6.14,2.37,6623.48,2557.34,37.303,–102.535
CO,8011,Bent,Las Animas,6499.00,3918.29,1512.86,73.09,28.22,3991.39,1541.08,37.932,–103.077
CO,8013,Boulder,Boulder,294567.00,1881.08,726.29,36.47,14.08,1917.55,740.37,40.095,–105.398
CO,8014,Broomfield,Broomfield,55889.00,85.56,33.03,1.47,0.57,87.02,33.60,39.953,–105.052
CO,8015,Chaffee,Salida,17809.00,2624.70,1013.40,4.01,1.55,2628.72,1014.95,38.738,–106.316
CO,8017,Cheyenne,Cheyenne Wells,1836.00,4605.71,1778.28,8.17,3.15,4613.88,1781.43,38.835,–102.604
CO,8019,Clear Creek,Georgetown,9088.00,1023.63,395.23,3.28,1.27,1026.91,396.49,39.689,–105.670
CO,8021,Conejos,Conejos,8256.00,3334.33,1287.39,9.24,3.57,3343.56,1290.96,37.213,–106.176
CO,8023,Costilla,San Luis,3524.00,3177.79,1226.95,8.83,3.41,3186.62,1230.36,37.278,–105.428
CO,8025,Crowley,Ordway,5823.00,2039.41,787.42,33.43,12.91,2072.84,800.33,38.322,–103.787
CO,8027,Custer,Westcliffe,4255.00,1913.03,738.63,3.37,1.30,1916.40,739.92,38.102,–105.373
CO,8029,Delta,Delta,30952.00,2957.90,1142.05,16.96,6.55,2974.86,1148.60,38.862,–107.864
CO,8031,Denver,Denver,600158.00,396.27,153.00,4.23,1.63,400.49,154.63,39.762,–104.880
CO,8033,Dolores,Dove Creek,2064.00,2763.65,1067.05,2.72,1.05,2766.37,1068.10,37.748,–108.530
CO,8035,Douglas,Castle Rock,285465.00,2176.23,840.25,6.79,2.62,2183.02,842.87,39.326,–104.926
CO,8037,Eagle,Eagle,52197.00,4362.91,1684.53,18.81,7.26,4381.72,1691.79,39.631,–106.692
CO,8039,Elbert,Colorado Springs,23086.00,4793.67,1850.85,0.44,0.17,4794.11,1851.02,39.311,–104.117
CO,8041,El Paso,Kiowa,622263.00,5508.39,2126.80,7.11,2.75,5515.50,2129.55,38.827,–104.527
CO,8043,Fremont,Cañon City,46824.00,3970.63,1533.07,2.24,0.86,3972.86,1533.93,38.456,–105.421
CO,8045,Garfield,Glenwood Springs,56389.00,7634.15,2947.56,21.43,8.27,7655.58,2955.84,39.599,–107.909
CO,8047,Gilpin,Central City,5441.00,388.23,149.90,0.94,0.36,389.17,150.26,39.861,–105.528
CO,8049,Grand,Hot Sulphur Springs,14843.00,4781.97,1846.33,60.25,23.26,4842.22,1869.59,40.123,–106.095
CO,8051,Gunnison,Gunnison,15324.00,8389.23,3239.10,53.17,20.53,8442.40,3259.63,38.670,–107.078
CO,8053,Hinsdale,Lake City,843.00,2893.67,1117.25,15.33,5.92,2908.99,1123.17,37.812,–107.383
CO,8055,Huerfano,Walsenburg,6711.00,4120.67,1591.00,5.79,2.24,4126.47,1593.24,37.688,–104.959
CO,8057,Jackson,Walden,1394.00,4179.52,1613.72,18.75,7.24,4198.27,1620.96,40.663,–106.329
CO,8059,Jefferson,Golden,534543.00,1979.29,764.21,25.45,9.83,2004.74,774.03,39.586,–105.245
CO,8061,Kiowa,Eads,1398.00,4578.50,1767.77,47.03,18.16,4625.53,1785.93,38.388,–102.756
CO,8063,Kit Carson,Burlington,8270.00,5596.50,2160.82,2.25,0.87,5598.75,2161.69,39.305,–102.603
CO,8065,Lake,Durango,7310.00,976.19,376.91,18.12,7.00,994.32,383.91,39.204,–106.349
CO,8067,La Plata,Leadville,51334.00,4382.46,1692.08,19.76,7.63,4402.22,1699.71,37.287,–107.839
CO,8069,Larimer,Fort Collins,299630.00,6723.61,2596.00,98.30,37.95,6821.91,2633.95,40.663,–105.482
CO,8071,Las Animas,Trinidad,15507.00,12361.16,4772.67,6.93,2.68,12368.09,4775.35,37.319,–104.044
CO,8073,Lincoln,Hugo,5467.00,6676.02,2577.63,22.78,8.80,6698.80,2586.42,38.994,–103.507
CO,8075,Logan,Sterling,22709.00,4761.81,1838.55,16.36,6.32,4778.18,1844.87,40.728,–103.090
CO,8077,Mesa,Grand Junction,146723.00,8622.00,3328.97,31.47,12.15,8653.47,3341.12,39.019,–108.461
CO,8079,Mineral,Creede,712.00,2267.97,875.67,5.22,2.02,2273.19,877.68,37.651,–106.932
CO,8081,Moffat,Craig,13795.00,12285.07,4743.29,19.74,7.62,12304.81,4750.91,40.574,–108.204
CO,8083,Montezuma,Cortez,25535.00,5256.45,2029.53,27.52,10.62,5283.97,2040.15,37.338,–108.595
CO,8085,Montrose,Montrose,41276.00,5803.37,2240.70,4.92,1.90,5808.30,2242.60,38.413,–108.263
CO,8087,Morgan,Fort Morgan,28159.00,3316.31,1280.43,34.47,13.31,3350.78,1293.74,40.262,–103.807
CO,8089,Otero,La Junta,18831.00,3268.47,1261.96,20.05,7.74,3288.52,1269.70,37.884,–103.721
CO,8091,Ouray,Ouray,4436.00,1402.72,541.59,1.60,0.62,1404.32,542.21,38.151,–107.767
CO,8093,Park,Fairplay,16206.00,5682.03,2193.85,43.53,16.81,5725.57,2210.65,39.119,–105.717
CO,8095,Phillips,Holyoke,4442.00,1781.73,687.93,0.30,0.12,1782.03,688.05,40.595,–102.345
CO,8097,Pitkin,Aspen,17148.00,2514.09,970.70,6.47,2.50,2520.56,973.20,39.218,–106.915
CO,8099,Prowers,Lamar,12551.00,4243.42,1638.40,15.35,5.93,4258.78,1644.32,37.958,–102.392
CO,8101,Pueblo,Pueblo,159063.00,6179.98,2386.10,30.28,11.69,6210.26,2397.80,38.171,–104.489
CO,8103,Rio Blanco,Meeker,6666.00,8342.18,3220.93,4.87,1.88,8347.05,3222.81,39.973,–108.200
CO,8105,Rio Grande,Del Norte,11982.00,2361.96,911.96,0.98,0.38,2362.94,912.34,37.486,–106.453
CO,8107,Routt,Steamboat Springs,23509.00,6117.62,2362.03,15.83,6.11,6133.45,2368.14,40.483,–106.985
CO,8109,Saguache,Saguache,6108.00,8206.44,3168.53,4.46,1.72,8210.90,3170.25,38.034,–106.246
CO,8111,San Juan,Silverton,699.00,1003.59,387.49,2.04,0.79,1005.62,388.27,37.781,–107.670
CO,8113,San Miguel,Telluride,7359.00,3332.31,1286.61,5.21,2.01,3337.52,1288.62,38.009,–108.427
CO,8115,Sedgwick,Julesburg,2379.00,1419.42,548.04,3.53,1.36,1422.95,549.40,40.872,–102.355
CO,8117,Summit,Breckenridge,27994.00,1575.64,608.36,28.28,10.92,1603.92,619.28,39.621,–106.137
CO,8119,Teller,Cripple Creek,23350.00,1442.77,557.06,4.95,1.91,1447.71,558.96,38.872,–105.182
CO,8121,Washington,Akron,4814.00,6521.67,2518.03,15.21,5.87,6536.88,2523.90,39.965,–103.209
CO,8123,Weld,Greeley,252825.00,10326.90,3987.24,76.55,29.56,10403.45,4016.80,40.556,–104.383
CO,8125,Yuma,Wray,10043.00,6123.78,2364.41,11.14,4.30,6134.92,2368.70,40.001,–102.422
CT,9001,Fairfield [6],Bridgeport [6],916829.00,1618.46,624.89,549.16,212.03,2167.62,836.92,41.228,–73.3667
CT,9003,Hartford [6],Hartford [6],894014.00,1903.89,735.10,40.21,15.53,1944.11,750.62,41.806,–72.7329
CT,9005,Litchfield [6],Litchfield [6],189927.00,2384.24,920.56,62.17,24.00,2446.41,944.56,41.792,–73.2354
CT,9007,Middlesex [6],Middletown [6],165676.00,956.49,369.30,180.68,69.76,1137.17,439.06,41.435,–72.5242
CT,9009,New Haven [6],New Haven [6],862477.00,1565.66,604.51,667.05,257.55,2232.72,862.06,41.350,–72.9002
CT,9011,New London [6],New London [6],274055.00,1722.03,664.88,276.67,106.82,1998.69,771.70,41.479,–72.1034
CT,9013,Tolland [6],Rockville [6],152691.00,1062.45,410.21,17.70,6.83,1080.15,417.05,41.858,–72.3409
CT,9015,Windham [6],Willimantic [6],118428.00,1328.43,512.91,22.09,8.53,1350.52,521.44,41.825,–71.9907
DE,10001,Kent,Dover,162310.00,1518.20,586.18,549.47,212.15,2067.67,798.33,39.097,–75.5029
DE,10003,New Castle,Wilmington,538479.00,1104.08,426.29,175.39,67.72,1279.46,494.00,39.576,–75.6441
DE,10005,Sussex,Georgetown,197145.00,2424.43,936.08,674.21,260.31,3098.64,1196.39,38.678,–75.3354
DC,11001,District of Columbia [7],Washington [7],601723.00,158.12,61.05,18.89,7.29,177.00,68.34,38.904,–77.0170
FL,12001,Alachua,Gainesville,247336.00,2266.29,875.02,242.91,93.79,2509.20,968.81,29.676,–82.3572
FL,12003,Baker,Macclenny,27115.00,1515.74,585.23,9.69,3.74,1525.43,588.97,30.324,–82.3022
FL,12005,Bay,Panama City,168852.00,1964.40,758.46,711.45,274.69,2675.85,1033.15,30.238,–85.6313
FL,12007,Bradford,Starke,28520.00,761.36,293.96,16.91,6.53,778.26,300.49,29.947,–82.1667
FL,12009,Brevard,Titusville,543376.00,2630.56,1015.66,1402.04,541.33,4032.60,1557.00,28.298,–80.7003
FL,12011,Broward,Fort Lauderdale,1748066.00,3133.33,1209.79,292.87,113.08,3426.20,1322.86,26.194,–80.4766
FL,12013,Calhoun,Blountstown,14625.00,1469.39,567.33,18.08,6.98,1487.46,574.31,30.389,–85.1979
FL,12015,Charlotte,Punta Gorda,159978.00,1761.91,680.28,461.08,178.02,2222.99,858.30,26.869,–81.9408
FL,12017,Citrus,Inverness,141236.00,1506.59,581.70,496.24,191.60,2002.82,773.29,28.844,–82.5247
FL,12019,Clay,Green Cove Springs,190865.00,1565.29,604.36,101.50,39.19,1666.78,643.55,29.987,–81.8581
FL,12021,Collier,East Naples,321520.00,5175.64,1998.32,794.33,306.69,5969.96,2305.02,26.119,–81.4008
FL,12023,Columbia,Lake City,67531.00,2065.71,797.57,9.72,3.75,2075.43,801.33,30.221,–82.6231
FL,12027,DeSoto,Arcadia,34862.00,1649.98,637.06,6.28,2.42,1656.25,639.48,27.191,–81.8062
FL,12029,Dixie,Cross City,16422.00,1826.08,705.05,410.76,158.60,2236.84,863.65,29.581,–83.1956
FL,12031,Duval,Jacksonville,864263.00,1974.07,762.19,404.71,156.26,2378.78,918.45,30.335,–81.6481
FL,12033,Escambia,Pensacola,297619.00,1700.23,656.46,565.25,218.24,2265.47,874.70,30.612,–87.3390
FL,12035,Flagler,Bunnell,95696.00,1257.34,485.46,221.09,85.36,1478.43,570.83,29.475,–81.2863
FL,12037,Franklin,Apalachicola,11549.00,1384.93,534.73,1273.68,491.77,2658.61,1026.49,29.810,–84.7991
FL,12039,Gadsden,Quincy,46389.00,1337.29,516.33,31.59,12.20,1368.88,528.53,30.579,–84.6127
FL,12041,Gilchrist,Trenton,16939.00,905.66,349.68,14.41,5.56,920.06,355.24,29.723,–82.7958
FL,12043,Glades,Moore Haven,12884.00,2087.55,806.01,468.37,180.84,2555.93,986.85,26.955,–81.1908
FL,12045,Gulf,Port St. Joe,15863.00,1460.79,564.01,496.11,191.55,1956.89,755.56,29.907,–85.2565
FL,12047,Hamilton,Jasper,14799.00,1330.71,513.79,13.64,5.27,1344.35,519.06,30.491,–82.9510
FL,12049,Hardee,Wauchula,27731.00,1651.85,637.78,1.44,0.56,1653.29,638.34,27.493,–81.8215
FL,12051,Hendry,LaBelle,39140.00,2985.61,1152.75,96.47,37.25,3082.08,1190.00,26.539,–81.1515
FL,12053,Hernando,Brooksville,172778.00,1223.87,472.54,301.69,116.48,1525.56,589.02,28.568,–82.4648
FL,12055,Highlands,Sebring,98786.00,2633.02,1016.62,231.60,89.42,2864.62,1106.04,27.343,–81.3409
FL,12057,Hillsborough,Tampa,1229226.00,2642.34,1020.21,635.97,245.55,3278.31,1265.77,27.907,–82.3495
FL,12059,Holmes,Bonifay,19927.00,1240.03,478.78,26.60,10.27,1266.63,489.05,30.866,–85.8129
FL,12061,Indian River,Vero Beach,138028.00,1302.43,502.87,295.61,114.13,1598.04,617.01,27.701,–80.5748
FL,12063,Jackson,Marianna,49746.00,2376.99,917.76,95.32,36.80,2472.31,954.56,30.788,–85.2103
FL,12065,Jefferson,Monticello,14761.00,1549.06,598.10,99.56,38.44,1648.62,636.54,30.425,–83.8908
FL,12067,Lafayette,Mayo,8870.00,1407.43,543.41,11.65,4.50,1419.08,547.91,29.990,–83.1785
FL,12069,Lake,Tavares,297052.00,2430.40,938.38,566.13,218.58,2996.52,1156.96,28.764,–81.7122
FL,12071,Lee,Fort Myers,618754.00,2031.88,784.51,1108.38,427.95,3140.26,1212.46,26.552,–81.8922
FL,12073,Leon,Tallahassee,275487.00,1727.14,666.85,90.49,34.94,1817.63,701.79,30.459,–84.2778
FL,12075,Levy,Bronson,40801.00,2896.14,1118.21,762.98,294.59,3659.12,1412.80,29.284,–82.7834
FL,12077,Liberty,Bristol,8365.00,2164.10,835.56,19.58,7.56,2183.68,843.12,30.260,–84.8685
FL,12079,Madison,Madison,19224.00,1802.50,695.95,51.11,19.74,1853.61,715.68,30.447,–83.4704
FL,12081,Manatee,Bradenton,322833.00,1924.18,742.93,387.85,149.75,2312.03,892.68,27.481,–82.3657
FL,12083,Marion,Ocala,331298.00,4103.96,1584.55,202.19,78.06,4306.14,1662.61,29.203,–82.0431
FL,12085,Martin,Stuart,146318.00,1407.57,543.46,542.25,209.37,1949.82,752.83,27.080,–80.3982
FL,12086,Miami,,,,,,,,,,
FL,12087,Monroe,Key West,73090.00,2546.69,983.28,7133.45,2754.24,9680.14,3737.52,25.601,–81.2067
FL,12089,Nassau,Fernandina Beach,73314.00,1679.97,648.64,200.16,77.28,1880.13,725.92,30.606,–81.7649
FL,12091,Okaloosa,Crestview,180822.00,2409.33,930.25,393.24,151.83,2802.57,1082.08,30.666,–86.5941
FL,12093,Okeechobee,Okeechobee,39996.00,1991.46,768.91,318.57,123.00,2310.03,891.91,27.386,–80.8873
FL,12095,Orange,Orlando,1145956.00,2339.87,903.43,258.56,99.83,2598.43,1003.26,28.514,–81.3232
FL,12097,Osceola,Kissimmee,268685.00,3438.09,1327.45,462.19,178.45,3900.28,1505.91,28.059,–81.1393
FL,12099,Palm Beach,West Palm Beach,1320134.00,5101.66,1969.76,1070.30,413.25,6171.97,2383.01,26.646,–80.4486
FL,12101,Pasco,Dade City,464697.00,1934.43,746.89,314.86,121.57,2249.29,868.45,28.302,–82.4557
FL,12103,Pinellas,Clearwater,916542.00,709.14,273.80,865.91,334.33,1575.04,608.13,27.903,–82.7395
FL,12105,Polk,Bartow,602095.00,4656.38,1797.84,550.93,212.71,5207.30,2010.55,27.953,–81.6927
FL,12107,Putnam,Palatka,74364.00,1884.53,727.62,257.18,99.30,2141.72,826.92,29.606,–81.7408
FL,12109,St. Johns,Milton,190039.00,1555.69,600.66,572.05,220.87,2127.74,821.53,29.891,–81.3839
FL,12111,St. Lucie,Sarasota,277789.00,1481.28,571.93,300.91,116.18,1782.19,688.11,27.381,–80.4433
FL,12113,Santa Rosa,Sanford,151372.00,2620.04,1011.61,420.03,162.17,3040.07,1173.78,30.704,–87.0142
FL,12115,Sarasota,St. Augustine,379448.00,1439.69,555.87,438.94,169.48,1878.63,725.34,27.184,–82.3658
FL,12117,Seminole,Fort Pierce,422718.00,800.88,309.22,93.43,36.07,894.31,345.29,28.690,–81.1319
FL,12119,Sumter,Bushnell,93420.00,1416.55,546.93,85.19,32.89,1501.74,579.83,28.714,–82.0747
FL,12121,Suwannee,Live Oak,41551.00,1783.34,688.55,9.59,3.70,1792.94,692.26,30.189,–82.9927
FL,12123,Taylor,Perry,22570.00,2702.15,1043.31,489.24,188.90,3191.39,1232.20,30.017,–83.6164
FL,12125,Union,Lake Butler,15535.00,630.81,243.56,16.05,6.20,646.86,249.75,30.054,–82.3669
FL,12127,Volusia,DeLand,494593.00,2851.66,1101.03,858.33,331.40,3709.99,1432.44,29.058,–81.1618
FL,12129,Wakulla,Crawfordville,30776.00,1570.62,606.42,334.90,129.31,1905.52,735.73,30.140,–84.3751
FL,12131,Walton,De Funiak Springs,55043.00,2687.44,1037.63,523.10,201.97,3210.54,1239.60,30.631,–86.1766
FL,12133,Washington,Chipley,24896.00,1509.45,582.80,85.86,33.15,1595.31,615.95,30.602,–85.6627
GA,13001,Appling,Baxley,18236.00,1313.33,507.08,13.42,5.18,1326.75,512.26,31.740,–82.2901
GA,13003,Atkinson,Pearson,8375.00,878.99,339.38,13.34,5.15,892.34,344.53,31.301,–82.8836
GA,13005,Bacon,Alma,11096.00,669.71,258.58,70.57,27.25,740.28,285.82,31.563,–82.3878
GA,13007,Baker,Newton,3451.00,885.63,341.94,18.63,7.20,904.26,349.14,31.320,–84.4548
GA,13009,Baldwin,Milledgeville,45720.00,667.81,257.84,24.78,9.57,692.59,267.41,33.060,–83.2553
GA,13011,Banks,Homer,18395.00,601.11,232.09,4.65,1.80,605.76,233.89,34.352,–83.4984
GA,13013,Barrow,Winder,69367.00,415.20,160.31,6.82,2.63,422.02,162.94,33.992,–83.7123
GA,13015,Bartow,Cartersville,100157.00,1190.21,459.54,27.37,10.57,1217.59,470.11,34.241,–84.8381
GA,13017,Ben Hill,Fitzgerald,17634.00,647.81,250.12,9.81,3.79,657.62,253.91,31.741,–83.1471
GA,13019,Berrien,Nashville,19286.00,1170.41,451.90,15.50,5.99,1185.91,457.88,31.274,–83.2319
GA,13021,Bibb,Macon,155547.00,646.88,249.76,14.51,5.60,661.39,255.37,32.809,–83.6941
GA,13023,Bleckley,Cochran,13063.00,559.10,215.87,8.45,3.26,567.55,219.13,32.435,–83.3317
GA,13025,Brantley,Nahunta,18411.00,1145.71,442.36,12.54,4.84,1158.25,447.20,31.197,–81.9829
GA,13027,Brooks,Quitman,16243.00,1276.98,493.05,12.32,4.76,1289.30,497.80,30.834,–83.5889
GA,13029,Bryan,Pembroke,30233.00,1129.15,435.97,47.89,18.49,1177.04,454.46,32.018,–81.4385
GA,13031,Bulloch,Statesboro,70217.00,1742.57,672.81,40.96,15.82,1783.53,688.63,32.393,–81.7438
GA,13033,Burke,Waynesboro,23316.00,2141.84,826.97,20.76,8.02,2162.60,834.98,33.064,–82.0038
GA,13035,Butts,Jackson,23655.00,477.58,184.39,9.45,3.65,487.02,188.04,33.290,–83.9582
GA,13037,Calhoun,Morgan,6694.00,726.15,280.37,8.32,3.21,734.46,283.58,31.521,–84.6262
GA,13039,Camden,Woodbine,50513.00,1587.73,613.03,437.29,168.84,2025.02,781.87,30.916,–81.6365
GA,13043,Candler,Metter,10998.00,629.48,243.04,15.06,5.81,644.54,248.86,32.404,–82.0714
GA,13045,Carroll,Carrollton,110527.00,1292.60,499.08,12.33,4.76,1304.93,503.84,33.582,–85.0805
GA,13047,Catoosa,Ringgold,63942.00,419.99,162.16,0.78,0.30,420.77,162.46,34.899,–85.1373
GA,13049,Charlton,Folkston,12171.00,2003.55,773.58,22.79,8.80,2026.34,782.37,30.780,–82.1396
GA,13051,Chatham,Savannah,265128.00,1104.47,426.44,533.09,205.83,1637.55,632.26,31.975,–81.0917
GA,13053,Chattahoochee,Cusseta,11267.00,644.22,248.74,6.29,2.43,650.52,251.17,32.347,–84.7880
GA,13055,Chattooga,Summerville,26015.00,811.54,313.34,0.57,0.22,812.11,313.56,34.474,–85.3452
GA,13057,Cherokee,Canton,214346.00,1092.13,421.67,32.98,12.73,1125.10,434.41,34.244,–84.4750
GA,13059,Clarke,Athens,116714.00,308.73,119.20,4.75,1.84,313.48,121.04,33.952,–83.3671
GA,13061,Clay,Fort Gaines,3183.00,506.04,195.38,56.60,21.85,562.64,217.23,31.620,–84.9925
GA,13063,Clayton,Jonesboro,259424.00,366.66,141.57,7.15,2.76,373.82,144.33,33.552,–84.4129
GA,13065,Clinch,Homerville,6798.00,2072.57,800.22,61.57,23.77,2134.13,823.99,30.918,–82.7026
GA,13067,Cobb,Marietta,688078.00,879.43,339.55,12.87,4.97,892.30,344.52,33.940,–84.5741
GA,13069,Coffee,Douglas,42356.00,1489.50,575.10,71.36,27.55,1560.86,602.65,31.549,–82.8449
GA,13071,Colquitt,Moultrie,45498.00,1409.35,544.15,32.34,12.49,1441.69,556.64,31.190,–83.7697
GA,13073,Columbia,Appling,124053.00,751.33,290.09,45.36,17.52,796.69,307.61,33.551,–82.2513
GA,13075,Cook,Adel,17212.00,588.35,227.16,15.65,6.04,603.99,233.20,31.153,–83.4295
GA,13077,Coweta,Newnan,127317.00,1141.91,440.89,12.76,4.93,1154.66,445.82,33.353,–84.7621
GA,13079,Crawford,Knoxville,12630.00,841.46,324.89,4.06,1.57,845.51,326.45,32.709,–83.9791
GA,13081,Crisp,Cordele,23439.00,705.99,272.58,21.67,8.37,727.66,280.95,31.915,–83.7533
GA,13083,Dade,Trenton,16633.00,450.61,173.98,0.46,0.18,451.07,174.16,34.852,–85.5062
GA,13085,Dawson,Dawsonville,22330.00,546.05,210.83,9.27,3.58,555.32,214.41,34.443,–84.1732
GA,13087,Decatur,Bainbridge,27842.00,1546.59,597.14,67.41,26.03,1614.00,623.17,30.878,–84.5777
GA,13089,DeKalb,Decatur,691893.00,693.03,267.58,9.22,3.56,702.25,271.14,33.771,–84.2263
GA,13091,Dodge,Eastman,21796.00,1284.35,495.89,18.71,7.22,1303.06,503.11,32.161,–83.1568
GA,13093,Dooly,Vienna,14918.00,1015.12,391.94,13.84,5.34,1028.96,397.28,32.152,–83.8071
GA,13095,Dougherty,Albany,94565.00,851.30,328.69,15.40,5.94,866.69,334.63,31.535,–84.2144
GA,13097,Douglas,Douglasville,132403.00,518.17,200.07,2.48,0.96,520.66,201.03,33.699,–84.7659
GA,13099,Early,Blakely,11008.00,1327.61,512.59,9.72,3.75,1337.33,516.35,31.324,–84.9067
GA,13101,Echols,Statenville,4034.00,1074.57,414.89,15.09,5.83,1089.66,420.72,30.709,–82.8361
GA,13103,Effingham,Springfield,52250.00,1237.24,477.70,13.55,5.23,1250.78,482.93,32.362,–81.3433
GA,13105,Elbert,Elberton,20166.00,909.23,351.06,59.99,23.16,969.22,374.22,34.115,–82.8420
GA,13107,Emanuel,Swainsboro,22598.00,1762.76,680.60,24.81,9.58,1787.56,690.18,32.591,–82.2997
GA,13109,Evans,Claxton,11000.00,473.59,182.85,10.40,4.02,483.99,186.87,32.152,–81.8876
GA,13111,Fannin,Blue Ridge,23682.00,1001.61,386.72,13.56,5.24,1015.17,391.96,34.864,–84.3192
GA,13113,Fayette,Fayetteville,106567.00,503.34,194.34,12.90,4.98,516.24,199.32,33.413,–84.4939
GA,13115,Floyd,Rome,96317.00,1320.66,509.91,22.16,8.56,1342.82,518.47,34.264,–85.2137
GA,13117,Forsyth,Cumming,175511.00,580.21,224.02,59.95,23.15,640.16,247.17,34.225,–84.1273
GA,13119,Franklin,Carnesville,22084.00,677.27,261.50,12.83,4.96,690.11,266.45,34.375,–83.2272
GA,13121,Fulton,Atlanta,920581.00,1363.98,526.64,19.92,7.69,1383.90,534.33,33.790,–84.4681
GA,13123,Gilmer,Ellijay,28292.00,1104.73,426.54,12.19,4.71,1116.92,431.25,34.691,–84.4539
GA,13125,Glascock,Gibson,3082.00,372.28,143.74,1.85,0.71,374.13,144.45,33.227,–82.6069
GA,13127,Glynn,Brunswick,79626.00,1087.16,419.75,428.63,165.50,1515.79,585.25,31.213,–81.4965
GA,13129,Gordon,Calhoun,55186.00,921.54,355.81,5.79,2.24,927.33,358.04,34.510,–84.8738
GA,13131,Grady,Cairo,25011.00,1177.22,454.53,14.86,5.74,1192.08,460.26,30.876,–84.2447
GA,13133,Greene,Greensboro,15994.00,1003.45,387.44,48.63,18.78,1052.08,406.21,33.577,–83.1671
GA,13135,Gwinnett,Lawrenceville,805321.00,1114.69,430.38,16.56,6.39,1131.24,436.78,33.959,–84.0229
GA,13137,Habersham,Clarkesville,43041.00,716.75,276.74,5.92,2.29,722.67,279.03,34.635,–83.5264
GA,13139,Hall,Gainesville,179684.00,1017.30,392.78,94.57,36.51,1111.87,429.30,34.318,–83.8184
GA,13141,Hancock,Sparta,9429.00,1222.06,471.84,17.72,6.84,1239.78,478.68,33.269,–83.0004
GA,13143,Haralson,Buchanan,28780.00,730.80,282.17,2.62,1.01,733.42,283.18,33.795,–85.2200
GA,13145,Harris,Hamilton,32024.00,1201.41,463.87,23.54,9.09,1224.95,472.96,32.732,–84.9124
GA,13147,Hart,Hartwell,25213.00,601.90,232.39,63.60,24.55,665.49,256.95,34.349,–82.9632
GA,13149,Heard,Franklin,11834.00,766.72,296.03,13.12,5.06,779.83,301.09,33.291,–85.1395
GA,13151,Henry,McDonough,203922.00,834.31,322.13,11.45,4.42,845.75,326.55,33.453,–84.1544
GA,13153,Houston,Perry,139900.00,972.65,375.54,11.35,4.38,983.99,379.92,32.458,–83.6628
GA,13155,Irwin,Ocilla,9538.00,917.74,354.34,21.81,8.42,939.55,362.76,31.604,–83.2770
GA,13157,Jackson,Jefferson,60485.00,879.72,339.66,8.90,3.44,888.62,343.10,34.134,–83.5651
GA,13159,Jasper,Monticello,13900.00,953.54,368.17,13.73,5.30,967.27,373.47,33.315,–83.6878
GA,13161,Jeff Davis,Hazlehurst,15068.00,856.61,330.74,12.06,4.66,868.68,335.40,31.812,–82.6368
GA,13163,Jefferson,Louisville,16930.00,1363.59,526.49,8.24,3.18,1371.83,529.67,33.052,–82.4190
GA,13165,Jenkins,Millen,8340.00,899.45,347.28,13.45,5.19,912.90,352.47,32.795,–81.9715
GA,13167,Johnson,Wrightsville,9980.00,784.79,303.01,9.28,3.58,794.07,306.59,32.690,–82.6613
GA,13169,Jones,Gray,28669.00,1020.28,393.93,3.84,1.48,1024.12,395.42,33.020,–83.5623
GA,13171,Lamar,Barnesville,18317.00,475.26,183.50,6.05,2.33,481.31,185.83,33.074,–84.1467
GA,13173,Lanier,Lakeland,10078.00,479.82,185.26,37.63,14.53,517.45,199.79,31.038,–83.0631
GA,13175,Laurens,Dublin,48434.00,2090.89,807.30,28.94,11.18,2119.83,818.47,32.393,–82.9263
GA,13177,Lee,Leesburg,28298.00,921.48,355.78,15.41,5.95,936.88,361.73,31.818,–84.1466
GA,13179,Liberty,Hinesville,63453.00,1268.58,489.80,291.96,112.73,1560.54,602.53,31.807,–81.4579
GA,13181,Lincoln,Lincolnton,7996.00,544.88,210.38,121.52,46.92,666.40,257.30,33.792,–82.4482
GA,13183,Long,Ludowici,14464.00,1036.76,400.29,9.12,3.52,1045.87,403.81,31.750,–81.7428
GA,13185,Lowndes,Valdosta,109233.00,1284.81,496.07,37.58,14.51,1322.38,510.58,30.834,–83.2689
GA,13187,Lumpkin,Dahlonega,29966.00,732.79,282.93,3.27,1.26,736.07,284.20,34.568,–83.9988
GA,13189,McDuffie,Thomson,21875.00,666.82,257.46,23.12,8.93,689.94,266.39,33.482,–82.4731
GA,13191,McIntosh,Darien,14333.00,1098.93,424.30,387.45,149.59,1486.38,573.89,31.483,–81.3701
GA,13193,Macon,Oglethorpe,14740.00,1037.65,400.64,13.86,5.35,1051.51,405.99,32.366,–84.0521
GA,13195,Madison,Danielsville,28120.00,731.18,282.31,8.49,3.28,739.67,285.59,34.128,–83.2036
GA,13197,Marion,Buena Vista,8742.00,947.94,366.00,3.83,1.48,951.77,367.48,32.360,–84.5295
GA,13199,Meriwether,Greenville,21992.00,1298.16,501.22,10.83,4.18,1309.00,505.41,33.030,–84.6632
GA,13201,Miller,Colquitt,6125.00,731.47,282.42,3.22,1.24,734.68,283.66,31.163,–84.7303
GA,13205,Mitchell,Camilla,23498.00,1326.29,512.09,4.50,1.74,1330.80,513.82,31.229,–84.1924
GA,13207,Monroe,Forsyth,26424.00,1024.75,395.66,5.58,2.15,1030.33,397.81,33.017,–83.9229
GA,13209,Montgomery,Mount Vernon,9123.00,620.36,239.52,13.39,5.17,633.75,244.69,32.172,–82.5333
GA,13211,Morgan,Madison,17868.00,899.63,347.35,18.83,7.27,918.46,354.62,33.594,–83.4923
GA,13213,Murray,Chatsworth,39628.00,892.16,344.47,5.69,2.20,897.85,346.66,34.797,–84.7379
GA,13215,Muscogee,Columbus,189885.00,560.44,216.39,11.97,4.62,572.40,221.01,32.510,–84.8749
GA,13217,Newton,Covington,99958.00,704.90,272.16,18.23,7.04,723.12,279.20,33.544,–83.8551
GA,13219,Oconee,Watkinsville,32808.00,477.31,184.29,5.39,2.08,482.70,186.37,33.834,–83.4377
GA,13221,Oglethorpe,Lexington,14899.00,1137.04,439.01,7.84,3.03,1144.87,442.04,33.867,–83.0740
GA,13223,Paulding,Dallas,142324.00,808.64,312.22,5.50,2.12,814.14,314.34,33.921,–84.8669
GA,13225,Peach,Fort Valley,27695.00,389.19,150.27,2.68,1.03,391.87,151.30,32.571,–83.8319
GA,13227,Pickens,Jasper,29431.00,601.03,232.06,1.70,0.66,602.72,232.71,34.457,–84.4902
GA,13229,Pierce,Blackshear,18758.00,819.72,316.49,69.25,26.74,888.96,343.23,31.354,–82.2104
GA,13231,Pike,Zebulon,17869.00,559.66,216.09,8.60,3.32,568.26,219.41,33.091,–84.3866
GA,13233,Polk,Cedartown,41475.00,803.76,310.33,4.69,1.81,808.44,312.14,33.996,–85.1868
GA,13235,Pulaski,Hawkinsville,12010.00,644.99,249.03,5.64,2.18,650.62,251.21,32.239,–83.4818
GA,13237,Putnam,Eatonton,21218.00,892.61,344.64,41.56,16.05,934.17,360.69,33.321,–83.3717
GA,13239,Quitman,Georgetown,2513.00,391.70,151.24,24.16,9.33,415.86,160.57,31.861,–85.0093
GA,13241,Rabun,Clayton,16276.00,958.28,369.99,17.85,6.89,976.12,376.88,34.883,–83.4047
GA,13243,Randolph,Cuthbert,7719.00,1109.13,428.24,6.83,2.64,1115.96,430.87,31.763,–84.7523
GA,13245,Richmond,Augusta,200549.00,840.00,324.33,11.05,4.27,851.05,328.59,33.361,–82.0749
GA,13247,Rockdale,Conyers,85215.00,336.16,129.79,5.97,2.31,342.13,132.10,33.652,–84.0263
GA,13249,Schley,Ellaville,5010.00,432.28,166.91,2.38,0.92,434.66,167.82,32.263,–84.3227
GA,13251,Screven,Sylvania,14593.00,1670.80,645.10,27.89,10.77,1698.69,655.87,32.745,–81.6175
GA,13253,Seminole,Donalsonville,8729.00,609.23,235.23,55.24,21.33,664.48,256.56,30.934,–84.8675
GA,13255,Spalding,Griffin,64073.00,508.85,196.47,8.09,3.12,516.94,199.59,33.262,–84.2860
GA,13257,Stephens,Toccoa,26175.00,463.95,179.13,13.12,5.07,477.07,184.20,34.553,–83.2902
GA,13259,Stewart,Lumpkin,6058.00,1188.11,458.73,12.64,4.88,1200.75,463.61,32.073,–84.8349
GA,13261,Sumter,Americus,32819.00,1250.18,482.70,25.79,9.96,1275.97,492.65,32.042,–84.2042
GA,13263,Talbot,Talbotton,6865.00,1013.69,391.39,8.74,3.37,1022.43,394.76,32.705,–84.5300
GA,13265,Taliaferro,Crawfordville,1717.00,504.03,194.61,1.92,0.74,505.95,195.35,33.559,–82.8752
GA,13267,Tattnall,Reidsville,25520.00,1241.65,479.40,23.17,8.95,1264.82,488.35,32.044,–82.0592
GA,13269,Taylor,Butler,8906.00,975.61,376.69,7.80,3.01,983.42,379.70,32.555,–84.2514
GA,13271,Telfair,McRae,16500.00,1132.61,437.30,17.37,6.71,1149.98,444.01,31.914,–82.9310
GA,13273,Terrell,Dawson,9315.00,868.78,335.44,5.86,2.26,874.65,337.70,31.777,–84.4394
GA,13275,Thomas,Thomasville,44720.00,1410.50,544.60,19.74,7.62,1430.24,552.22,30.865,–83.9197
GA,13277,Tift,Tifton,40118.00,670.59,258.92,25.58,9.88,696.16,268.79,31.457,–83.5259
GA,13279,Toombs,Lyons,27223.00,942.77,364.01,18.10,6.99,960.87,370.99,32.127,–82.3320
GA,13281,Towns,Hiawassee,10471.00,431.40,166.56,14.04,5.42,445.43,171.98,34.903,–83.7321
GA,13283,Treutlen,Soperton,6885.00,516.54,199.44,7.81,3.01,524.34,202.45,32.410,–82.5708
GA,13285,Troup,La Grange,67044.00,1072.22,413.99,82.81,31.97,1155.04,445.96,33.034,–85.0283
GA,13287,Turner,Ashburn,8930.00,739.17,285.39,11.88,4.59,751.05,289.98,31.718,–83.6285
GA,13289,Twiggs,Jeffersonville,9023.00,928.25,358.40,10.97,4.24,939.22,362.63,32.666,–83.4258
GA,13291,Union,Blairsville,21356.00,833.79,321.93,18.33,7.08,852.12,329.00,34.834,–83.9895
GA,13293,Upson,Thomaston,27153.00,837.70,323.44,10.66,4.12,848.36,327.55,32.882,–84.2922
GA,13295,Walker,La Fayette,68756.00,1156.12,446.38,1.67,0.65,1157.79,447.03,34.736,–85.3053
GA,13297,Walton,Monroe,83768.00,843.51,325.68,11.19,4.32,854.70,330.00,33.783,–83.7342
GA,13299,Ware,Waycross,36312.00,2311.46,892.46,40.22,15.53,2351.68,907.99,31.051,–82.4215
GA,13301,Warren,Warrenton,5834.00,736.33,284.30,6.19,2.39,742.52,286.69,33.419,–82.6880
GA,13303,Washington,Sandersville,21187.00,1757.18,678.45,15.29,5.90,1772.47,684.36,32.972,–82.7981
GA,13305,Wayne,Jesup,30099.00,1662.19,641.78,18.18,7.02,1680.37,648.80,31.548,–81.9123
GA,13307,Webster,Preston,2799.00,541.61,209.12,2.97,1.15,544.58,210.26,32.047,–84.5532
GA,13309,Wheeler,Alamo,7421.00,765.30,295.48,12.39,4.78,777.69,300.27,32.109,–82.7387
GA,13311,White,Cleveland,27144.00,623.38,240.69,3.94,1.52,627.32,242.21,34.644,–83.7437
GA,13313,Whitfield,Dalton,102599.00,752.30,290.46,1.53,0.59,753.83,291.06,34.802,–84.9685
GA,13315,Wilcox,Abbeville,9255.00,978.25,377.71,11.44,4.42,989.69,382.12,31.963,–83.4382
GA,13317,Wilkes,Washington,10593.00,1215.97,469.49,11.93,4.60,1227.90,474.09,33.779,–82.7479
GA,13319,Wilkinson,Irwinton,9563.00,1158.52,447.31,12.02,4.64,1170.55,451.95,32.804,–83.1755
GA,13321,Worth,Sylvester,21679.00,1478.11,570.70,10.50,4.05,1488.61,574.76,31.552,–83.8499
HI,15001,Hawaiʻi,Hilo,185079.00,10433.55,4028.42,2739.47,1057.72,13173.02,5086.13,19.598,–155.502
HI,15003,Honolulu,Honolulu,953207.00,1555.92,600.74,3955.76,1527.33,5511.68,2128.07,21.461,–158.201
HI,15005,Kalawao [8],— [8],90.00,31.06,11.99,105.77,40.84,136.83,52.83,21.219,–156.974
HI,15007,Kauaʻi,Līhuʻe,67091.00,1605.68,619.96,1674.18,646.40,3279.86,1266.36,22.012,–159.705
HI,15009,Maui,Wailuku,154834.00,3008.33,1161.52,3203.32,1236.81,6211.64,2398.33,20.856,–156.601
ID,16001,Ada,Boise,392365.00,2726.16,1052.58,20.43,7.89,2746.58,1060.46,43.448,–116.244
ID,16003,Adams,Council,3976.00,3530.30,1363.06,17.39,6.72,3547.69,1369.77,44.885,–116.431
ID,16005,Bannock,Pocatello,82839.00,2880.04,1111.99,91.80,35.44,2971.84,1147.43,42.693,–112.228
ID,16007,Bear Lake,Paris,5986.00,2524.68,974.79,193.27,74.62,2717.96,1049.41,42.286,–111.327
ID,16009,Benewah,St. Maries,9285.00,2011.43,776.62,18.99,7.33,2030.42,783.95,47.218,–116.633
ID,16011,Bingham,Blackfoot,45607.00,5423.38,2093.98,68.45,26.43,5491.83,2120.41,43.216,–112.399
ID,16013,Blaine,Hailey,21376.00,6846.86,2643.59,44.34,17.12,6891.20,2660.71,43.394,–113.955
ID,16015,Boise,Idaho City,7028.00,4919.00,1899.24,19.29,7.45,4938.29,1906.69,43.987,–115.715
ID,16017,Bonner,Sandpoint,40877.00,4492.52,1734.57,478.96,184.93,4971.48,1919.50,48.313,–116.596
ID,16019,Bonneville,Idaho Falls,104234.00,4833.12,1866.08,89.51,34.56,4922.62,1900.64,43.395,–111.621
ID,16021,Boundary,Bonners Ferry,10972.00,3285.56,1268.56,24.08,9.30,3309.64,1277.86,48.773,–116.524
ID,16023,Butte,Arco,2891.00,5779.99,2231.67,5.26,2.03,5785.25,2233.70,43.685,–113.177
ID,16025,Camas,Fairfield,1117.00,2782.93,1074.49,11.54,4.45,2794.46,1078.95,43.463,–114.804
ID,16027,Canyon,Caldwell,188923.00,1521.28,587.37,41.90,16.18,1563.18,603.55,43.623,–116.708
ID,16029,Caribou,Soda Springs,6963.00,4569.12,1764.15,89.17,34.43,4658.29,1798.58,42.786,–111.544
ID,16031,Cassia,Burley,22952.00,6643.53,2565.08,39.37,15.20,6682.90,2580.28,42.289,–113.605
ID,16033,Clark,Dubois,982.00,4569.22,1764.19,2.48,0.96,4571.70,1765.14,44.286,–112.361
ID,16035,Clearwater,Orofino,8761.00,6364.31,2457.27,79.55,30.71,6443.85,2487.99,46.673,–115.653
ID,16037,Custer,Challis,4368.00,12745.18,4920.94,42.39,16.37,12787.56,4937.31,44.273,–114.252
ID,16039,Elmore,Mountain Home,27038.00,7963.53,3074.74,67.39,26.02,8030.92,3100.76,43.395,–115.470
ID,16041,Franklin,Preston,12786.00,1718.83,663.65,12.17,4.70,1731.00,668.34,42.174,–111.822
ID,16043,Fremont,St. Anthony,13242.00,4826.51,1863.53,83.29,32.16,4909.80,1895.68,44.218,–111.484
ID,16045,Gem,Emmett,16719.00,1452.73,560.90,12.45,4.81,1465.17,565.71,44.061,–116.398
ID,16047,Gooding,Gooding,15464.00,1888.03,728.97,12.29,4.75,1900.32,733.72,42.973,–114.821
ID,16049,Idaho,Grangeville,16267.00,21956.24,8477.35,67.34,26.00,22023.58,8503.35,45.849,–115.467
ID,16051,Jefferson,Rigby,26140.00,2832.16,1093.50,31.27,12.07,2863.42,1105.57,43.797,–112.318
ID,16053,Jerome,Jerome,22374.00,1546.70,597.19,12.86,4.97,1559.57,602.15,42.691,–114.263
ID,16055,Kootenai,Coeur d'Alene,138494.00,3222.27,1244.13,185.18,71.50,3407.45,1315.62,47.677,–116.694
ID,16057,Latah,Moscow,37244.00,2786.82,1076.00,2.37,0.92,2789.19,1076.91,46.819,–116.730
ID,16059,Lemhi,Salmon,7936.00,11819.12,4563.39,13.89,5.37,11833.01,4568.75,44.929,–113.887
ID,16061,Lewis,Nezperce,3821.00,1240.07,478.80,2.44,0.94,1242.52,479.74,46.236,–116.423
ID,16063,Lincoln,Shoshone,5208.00,3111.63,1201.41,11.61,4.48,3123.23,1205.89,42.986,–114.153
ID,16065,Madison,Rexburg,37536.00,1215.24,469.21,10.41,4.02,1225.65,473.23,43.790,–111.656
ID,16067,Minidoka,Rupert,20069.00,1962.15,757.59,13.82,5.34,1975.97,762.93,42.857,–113.640
ID,16069,Nez Perce,Lewiston,39265.00,2196.55,848.09,21.21,8.19,2217.76,856.28,46.334,–116.760
ID,16071,Oneida,Malad City,4286.00,3108.14,1200.06,4.00,1.54,3112.14,1201.60,42.184,–112.520
ID,16073,Owyhee,Murphy,11526.00,19853.58,7665.51,81.51,31.47,19935.09,7696.98,42.593,–116.142
ID,16075,Payette,Payette,22623.00,1053.78,406.87,8.83,3.41,1062.61,410.28,44.003,–116.748
ID,16077,Power,American Falls,7817.00,3636.97,1404.24,99.51,38.42,3736.49,1442.67,42.694,–112.844
ID,16079,Shoshone,Wallace,12765.00,6810.80,2629.67,14.14,5.46,6824.94,2635.12,47.348,–115.885
ID,16081,Teton,Driggs,10170.00,1164.08,449.46,2.86,1.10,1166.94,450.56,43.761,–111.211
ID,16083,Twin Falls,Twin Falls,77230.00,4975.92,1921.21,18.42,7.11,4994.34,1928.32,42.352,–114.665
ID,16085,Valley,Cascade,9862.00,9491.05,3664.52,177.27,68.45,9668.32,3732.96,44.772,–115.637
ID,16087,Washington,Weiser,10198.00,3763.21,1452.98,53.21,20.55,3816.42,1473.53,44.448,–116.797
IL,17001,Adams,Quincy,67103.00,2214.96,855.20,41.79,16.14,2256.76,871.34,39.986,–91.1949
IL,17003,Alexander,Cairo,8238.00,609.97,235.51,44.27,17.09,654.23,252.60,37.184,–89.3495
IL,17005,Bond,Greenville,17768.00,984.92,380.28,6.43,2.48,991.35,382.76,38.886,–89.4365
IL,17007,Boone,Belvidere,54165.00,727.06,280.72,3.38,1.31,730.44,282.02,42.319,–88.8242
IL,17009,Brown,Mount Sterling,6937.00,791.52,305.61,4.14,1.60,795.66,307.21,39.962,–90.7503
IL,17011,Bureau,Princeton,34978.00,2250.78,869.03,11.58,4.47,2262.36,873.50,41.401,–89.5283
IL,17013,Calhoun,Hardin,5089.00,657.40,253.83,77.06,29.75,734.46,283.58,39.164,–90.6662
IL,17015,Carroll,Mount Carroll,15387.00,1152.05,444.81,55.82,21.55,1207.87,466.36,42.059,–89.9264
IL,17017,Cass,Virginia,13642.00,973.37,375.82,20.58,7.95,993.95,383.77,39.969,–90.2457
IL,17019,Champaign,Urbana,201081.00,2580.32,996.27,5.51,2.13,2585.83,998.39,40.139,–88.1972
IL,17021,Christian,Taylorville,34800.00,1837.28,709.38,16.22,6.26,1853.50,715.64,39.546,–89.2795
IL,17023,Clark,Marshall,16335.00,1298.67,501.42,8.81,3.40,1307.47,504.82,39.332,–87.7916
IL,17025,Clay,Louisville,13815.00,1212.93,468.32,3.31,1.28,1216.24,469.59,38.747,–88.4837
IL,17027,Clinton,Carlyle,37762.00,1227.87,474.09,75.59,29.19,1303.47,503.27,38.606,–89.4231
IL,17029,Coles,Charleston,53873.00,1316.47,508.29,4.63,1.79,1321.09,510.08,39.514,–88.2207
IL,17031,Cook,Chicago,5194675.00,2448.38,945.33,1785.88,689.53,4234.27,1634.86,41.894,–87.6454
IL,17033,Crawford,Robinson,19817.00,1148.99,443.63,5.67,2.19,1154.67,445.82,39.004,–87.7571
IL,17035,Cumberland,Toledo,11048.00,896.20,346.02,2.54,0.98,898.73,347.00,39.273,–88.2406
IL,17037,DeKalb,Clinton,105160.00,1635.08,631.31,8.68,3.35,1643.76,634.66,41.895,–88.7689
IL,17039,De Witt,Sycamore,16561.00,1029.56,397.51,19.61,7.57,1049.16,405.08,40.181,–88.9018
IL,17041,Douglas,Tuscola,19980.00,1079.16,416.67,1.45,0.56,1080.61,417.22,39.766,–88.2228
IL,17043,DuPage,Wheaton,916924.00,848.22,327.50,23.08,8.91,871.30,336.41,41.852,–88.0860
IL,17045,Edgar,Paris,18576.00,1614.53,623.37,1.61,0.62,1616.14,624.00,39.679,–87.7471
IL,17047,Edwards,Albion,6721.00,576.05,222.42,0.79,0.31,576.84,222.72,38.417,–88.0479
IL,17049,Effingham,Effingham,34242.00,1240.03,478.78,3.18,1.23,1243.21,480.01,39.048,–88.5927
IL,17051,Fayette,Vandalia,22140.00,1855.68,716.48,22.95,8.86,1878.63,725.34,39.001,–89.0179
IL,17053,Ford,Paxton,14081.00,1257.74,485.62,1.62,0.63,1259.36,486.24,40.594,–88.2247
IL,17055,Franklin,Benton,39561.00,1059.02,408.89,58.42,22.56,1117.44,431.44,37.992,–88.9262
IL,17057,Fulton,Lewistown,37069.00,2241.88,865.60,43.97,16.98,2285.86,882.57,40.466,–90.2067
IL,17059,Gallatin,Shawneetown,5589.00,836.75,323.07,13.24,5.11,849.99,328.18,37.769,–88.2279
IL,17061,Greene,Carrollton,13886.00,1406.41,543.02,8.43,3.25,1414.84,546.27,39.355,–90.3877
IL,17063,Grundy,Morris,50063.00,1082.73,418.04,32.13,12.40,1114.85,430.45,41.292,–88.4010
IL,17065,Hamilton,McLeansboro,8457.00,1125.78,434.67,3.18,1.23,1128.95,435.89,38.085,–88.5390
IL,17067,Hancock,Carthage,19104.00,2055.74,793.73,53.54,20.67,2109.28,814.40,40.406,–91.1679
IL,17069,Hardin,Elizabethtown,4320.00,459.79,177.53,10.49,4.05,470.29,181.58,37.518,–88.2661
IL,17071,Henderson,Oquawka,7331.00,981.27,378.87,42.34,16.35,1023.61,395.22,40.815,–90.9384
IL,17073,Henry,Cambridge,50486.00,2131.52,822.99,6.88,2.66,2138.41,825.64,41.350,–90.1308
IL,17075,Iroquois,Watseka,29718.00,2893.84,1117.32,4.17,1.61,2898.01,1118.93,40.749,–87.8336
IL,17077,Jackson,Murphysboro,60218.00,1512.76,584.08,47.39,18.30,1560.16,602.38,37.786,–89.3812
IL,17079,Jasper,Newton,9698.00,1280.77,494.51,9.35,3.61,1290.12,498.12,39.005,–88.1507
IL,17081,Jefferson,Mount Vernon,38827.00,1479.32,571.17,32.67,12.62,1511.99,583.78,38.301,–88.9242
IL,17083,Jersey,Jerseyville,22985.00,956.41,369.27,20.35,7.86,976.76,377.13,39.080,–90.3613
IL,17085,Jo Daviess,Galena,22678.00,1556.81,601.09,45.69,17.64,1602.50,618.73,42.362,–90.2114
IL,17087,Johnson,Vienna,12582.00,890.74,343.92,12.82,4.95,903.55,348.86,37.461,–88.8829
IL,17089,Kane,Geneva,515269.00,1346.94,520.06,10.73,4.14,1357.67,524.20,41.940,–88.4280
IL,17091,Kankakee,Kankakee,113449.00,1752.27,676.56,12.45,4.81,1764.72,681.36,41.139,–87.8611
IL,17093,Kendall,Yorkville,114736.00,829.67,320.34,5.14,1.99,834.81,322.32,41.588,–88.4306
IL,17095,Knox,Galesburg,52919.00,1855.45,716.40,8.85,3.42,1864.30,719.81,40.931,–90.2137
IL,17097,Lake,Ottawa,703462.00,1149.10,443.67,2395.24,924.81,3544.34,1368.48,42.326,–87.4361
IL,17099,La Salle,Waukegan,113924.00,2939.96,1135.12,33.70,13.01,2973.66,1148.14,41.343,–88.8859
IL,17101,Lawrence,Lawrenceville,16833.00,963.94,372.18,5.08,1.96,969.02,374.14,38.719,–87.7302
IL,17103,Lee,Dixon,36031.00,1877.47,724.90,10.51,4.06,1887.98,728.95,41.747,–89.2993
IL,17105,Livingston,Pontiac,38950.00,2704.69,1044.29,4.25,1.64,2708.94,1045.93,40.894,–88.5528
IL,17107,Logan,Lincoln,30305.00,1600.77,618.06,2.25,0.87,1603.01,618.93,40.129,–89.3653
IL,17109,McDonough,Decatur,32612.00,1526.56,589.41,2.01,0.78,1528.57,590.18,40.456,–90.6775
IL,17111,McHenry,Carlinville,308760.00,1562.21,603.17,19.79,7.64,1582.00,610.81,42.324,–88.4522
IL,17113,McLean,Edwardsville,169572.00,3064.93,1183.38,7.49,2.89,3072.42,1186.27,40.495,–88.8445
IL,17115,Macon,Salem,110768.00,1503.98,580.69,13.41,5.18,1517.38,585.87,39.860,–88.9615
IL,17117,Macoupin,Lacon,47765.00,2234.92,862.91,12.29,4.74,2247.21,867.65,39.266,–89.9263
IL,17119,Madison,Havana,269282.00,1853.35,715.58,64.70,24.98,1918.05,740.56,38.827,–89.9001
IL,17121,Marion,Metropolis,39437.00,1482.41,572.36,9.51,3.67,1491.93,576.04,38.648,–88.9202
IL,17123,Marshall,Macomb,12640.00,1001.78,386.79,30.37,11.73,1032.15,398.51,41.031,–89.3423
IL,17125,Mason,Woodstock,14666.00,1396.62,539.24,62.75,24.23,1459.36,563.46,40.237,–89.9135
IL,17127,Massac,Bloomington,15429.00,614.39,237.22,11.91,4.60,626.30,241.81,37.216,–88.7056
IL,17129,Menard,Petersburg,12705.00,814.39,314.44,2.64,1.02,817.03,315.46,40.023,–89.7941
IL,17131,Mercer,Aledo,16434.00,1453.51,561.20,19.40,7.49,1472.91,568.69,41.205,–90.7414
IL,17133,Monroe,Waterloo,32957.00,997.17,385.01,33.73,13.03,1030.91,398.04,38.278,–90.1790
IL,17135,Montgomery,Hillsboro,30104.00,1822.54,703.69,15.51,5.99,1838.05,709.68,39.228,–89.4780
IL,17137,Morgan,Jacksonville,35547.00,1473.16,568.79,9.08,3.51,1482.24,572.30,39.717,–90.2022
IL,17139,Moultrie,Sullivan,14846.00,870.09,335.94,22.10,8.53,892.19,344.48,39.637,–88.6257
IL,17141,Ogle,Oregon,53497.00,1964.70,758.57,11.43,4.41,1976.12,762.99,42.042,–89.3201
IL,17143,Peoria,Peoria,186494.00,1603.75,619.21,29.50,11.39,1633.24,630.60,40.786,–89.7673
IL,17145,Perry,Pinckneyville,22350.00,1144.16,441.76,13.45,5.19,1157.60,446.95,38.084,–89.3684
IL,17147,Piatt,Monticello,16729.00,1137.53,439.20,0.67,0.26,1138.20,439.46,40.009,–88.5923
IL,17149,Pike,Pittsfield,16430.00,2153.27,831.38,45.33,17.50,2198.60,848.88,39.625,–90.8890
IL,17151,Pope,Golconda,4470.00,955.11,368.77,14.33,5.53,969.44,374.30,37.417,–88.5423
IL,17153,Pulaski,Mound City,6161.00,515.89,199.19,10.48,4.04,526.36,203.23,37.216,–89.1277
IL,17155,Putnam,Hennepin,6006.00,414.81,160.16,31.24,12.06,446.06,172.22,41.199,–89.2983
IL,17157,Randolph,Chester,33476.00,1490.54,575.50,56.22,21.71,1546.75,597.21,38.057,–89.8212
IL,17159,Richland,Olney,16233.00,932.37,359.99,4.94,1.91,937.31,361.90,38.712,–88.0856
IL,17161,Rock Island,Rock Island,147546.00,1107.57,427.64,61.26,23.65,1168.83,451.29,41.468,–90.5722
IL,17163,St. Clair,Harrisburg,270056.00,1703.59,657.76,42.15,16.27,1745.74,674.03,38.470,–89.9285
IL,17165,Saline,Springfield,24913.00,983.73,379.82,18.03,6.96,1001.76,386.78,37.752,–88.5450
IL,17167,Sangamon,Rushville,197465.00,2248.89,868.30,22.58,8.72,2271.47,877.02,39.756,–89.6623
IL,17169,Schuyler,Winchester,7544.00,1132.53,437.27,10.51,4.06,1143.04,441.33,40.157,–90.6134
IL,17171,Scott,Shelbyville,5355.00,649.86,250.91,4.81,1.86,654.67,252.77,39.637,–90.4777
IL,17173,Shelby,Belleville,22363.00,1964.57,758.52,24.73,9.55,1989.29,768.07,39.385,–88.7988
IL,17175,Stark,Toulon,5994.00,746.12,288.08,0.71,0.27,746.83,288.35,41.097,–89.7974
IL,17177,Stephenson,Freeport,47711.00,1462.11,564.52,1.39,0.54,1463.49,565.06,42.350,–89.6659
IL,17179,Tazewell,Pekin,135394.00,1680.84,648.97,23.21,8.96,1704.05,657.94,40.508,–89.5162
IL,17181,Union,Jonesboro,17808.00,1070.85,413.46,22.50,8.69,1093.36,422.15,37.475,–89.2528
IL,17183,Vermilion,Danville,81625.00,2326.76,898.37,7.53,2.91,2334.30,901.28,40.187,–87.7267
IL,17185,Wabash,Mount Carmel,11947.00,578.22,223.25,11.02,4.25,589.24,227.51,38.446,–87.8391
IL,17187,Warren,Monmouth,17707.00,1404.82,542.41,1.67,0.65,1406.50,543.05,40.850,–90.6202
IL,17189,Washington,Nashville,14716.00,1457.06,562.57,3.46,1.33,1460.51,563.91,38.353,–89.4171
IL,17191,Wayne,Fairfield,16760.00,1848.77,713.81,4.33,1.67,1853.10,715.49,38.432,–88.4321
IL,17193,White,Carmi,14665.00,1281.44,494.77,18.38,7.10,1299.81,501.86,38.087,–88.1785
IL,17195,Whiteside,Morrison,58498.00,1772.20,684.25,31.80,12.28,1804.00,696.53,41.751,–89.9109
IL,17197,Will,Joliet,677560.00,2167.58,836.91,31.90,12.32,2199.49,849.23,41.448,–87.9784
IL,17199,Williamson,Marion,66357.00,1088.18,420.15,62.68,24.20,1150.87,444.35,37.730,–88.9300
IL,17201,Winnebago,Rockford,295266.00,1329.60,513.36,15.25,5.89,1344.85,519.25,42.337,–89.1612
IL,17203,Woodford,Eureka,38664.00,1366.99,527.80,38.44,14.84,1405.44,542.64,40.790,–89.2103
IN,18001,Adams,Decatur,34387.00,878.08,339.03,2.43,0.94,880.51,339.97,40.746,–84.9361
IN,18003,Allen,Fort Wayne,355329.00,1702.42,657.31,7.03,2.71,1709.45,660.02,41.092,–85.0722
IN,18005,Bartholomew,Columbus,76794.00,1053.89,406.91,6.78,2.62,1060.67,409.53,39.206,–85.8979
IN,18007,Benton,Fowler,8854.00,1052.62,406.42,0.24,0.09,1052.85,406.51,40.608,–87.3154
IN,18009,Blackford,Hartford City,12766.00,427.56,165.08,1.30,0.50,428.86,165.58,40.473,–85.3237
IN,18011,Boone,Lebanon,56640.00,1095.34,422.91,0.88,0.34,1096.22,423.25,40.051,–86.4690
IN,18013,Brown,Nashville,15242.00,808.03,311.98,12.04,4.65,820.07,316.63,39.193,–86.2394
IN,18015,Carroll,Delphi,20155.00,964.06,372.22,7.24,2.80,971.29,375.02,40.585,–86.5651
IN,18017,Cass,Logansport,38966.00,1067.48,412.16,6.97,2.69,1074.45,414.85,40.754,–86.3551
IN,18019,Clark,Jeffersonville,110232.00,965.69,372.86,9.31,3.60,975.00,376.45,38.476,–85.7111
IN,18021,Clay,Brazil,26890.00,926.03,357.54,7.20,2.78,933.23,360.32,39.394,–87.1158
IN,18023,Clinton,Frankfort,33224.00,1049.13,405.07,0.46,0.18,1049.59,405.25,40.306,–86.4775
IN,18025,Crawford,English,10713.00,791.61,305.64,7.97,3.08,799.58,308.72,38.289,–86.4408
IN,18027,Daviess,Washington,31648.00,1112.37,429.49,19.13,7.39,1131.50,436.87,38.696,–87.0769
IN,18029,Dearborn,Lawrenceburg,50047.00,790.03,305.03,6.17,2.38,796.20,307.42,39.151,–84.9734
IN,18031,Decatur,Greensburg,25740.00,964.95,372.57,1.96,0.76,966.90,373.32,39.306,–85.4998
IN,18033,DeKalb,Auburn,42223.00,939.71,362.82,2.66,1.03,942.37,363.85,41.401,–85.0001
IN,18035,Delaware,Muncie,117671.00,1015.60,392.12,9.80,3.79,1025.40,395.91,40.227,–85.3988
IN,18037,Dubois,Jasper,41889.00,1106.62,427.27,20.89,8.06,1127.51,435.33,38.373,–86.8733
IN,18039,Elkhart,Goshen,197559.00,1199.61,463.17,12.43,4.80,1212.04,467.97,41.601,–85.8639
IN,18041,Fayette,Connersville,24277.00,556.88,215.01,0.38,0.15,557.27,215.16,39.640,–85.1850
IN,18043,Floyd,New Albany,74578.00,383.15,147.94,2.65,1.02,385.80,148.96,38.318,–85.9114
IN,18045,Fountain,Covington,17240.00,1024.74,395.66,5.76,2.22,1030.50,397.88,40.121,–87.2348
IN,18047,Franklin,Brookville,23087.00,995.67,384.43,17.15,6.62,1012.81,391.05,39.410,–85.0669
IN,18049,Fulton,Rochester,20836.00,954.12,368.39,7.45,2.88,961.57,371.27,41.050,–86.2650
IN,18051,Gibson,Princeton,33503.00,1262.58,487.49,30.25,11.68,1292.83,499.17,38.317,–87.5805
IN,18053,Grant,Marion,70061.00,1072.45,414.07,2.13,0.82,1074.58,414.90,40.516,–85.6549
IN,18055,Greene,Bloomfield,33165.00,1405.06,542.50,8.87,3.42,1413.92,545.92,39.049,–87.0052
IN,18057,Hamilton,Noblesville,274569.00,1021.15,394.27,21.16,8.17,1042.31,402.44,40.050,–86.0205
IN,18059,Hancock,Greenfield,70002.00,792.58,306.02,2.61,1.01,795.19,307.03,39.823,–85.7729
IN,18061,Harrison,Corydon,39364.00,1254.89,484.52,5.19,2.01,1260.08,486.52,38.186,–86.1036
IN,18063,Hendricks,Danville,145448.00,1053.90,406.91,4.83,1.87,1058.73,408.78,39.769,–86.5102
IN,18065,Henry,New Castle,49462.00,1014.96,391.88,7.66,2.96,1022.61,394.83,39.930,–85.3973
IN,18067,Howard,Kokomo,82752.00,759.01,293.06,2.24,0.87,761.25,293.92,40.484,–86.1141
IN,18069,Huntington,Huntington,37124.00,991.06,382.65,13.14,5.07,1004.20,387.72,40.826,–85.4785
IN,18071,Jackson,Brownstown,42376.00,1319.11,509.31,11.92,4.60,1331.03,513.91,38.912,–86.0425
IN,18073,Jasper,Rensselaer,33478.00,1449.42,559.63,4.56,1.76,1453.98,561.39,41.018,–87.1188
IN,18075,Jay,Portland,21253.00,994.31,383.91,0.46,0.18,994.77,384.08,40.435,–85.0033
IN,18077,Jefferson,Madison,32428.00,934.03,360.63,5.85,2.26,939.88,362.89,38.784,–85.4400
IN,18079,Jennings,Vernon,28525.00,975.35,376.58,4.56,1.76,979.91,378.35,38.996,–85.6281
IN,18081,Johnson,Franklin,139654.00,829.90,320.43,3.53,1.36,833.43,321.79,39.496,–86.0946
IN,18083,Knox,Vincennes,38440.00,1336.51,516.03,20.76,8.01,1357.27,524.05,38.689,–87.4201
IN,18085,Kosciusko,Warsaw,77358.00,1376.27,531.38,59.60,23.01,1435.87,554.39,41.244,–85.8615
IN,18087,LaGrange,Lagrange,37128.00,983.22,379.62,18.33,7.08,1001.56,386.70,41.642,–85.4263
IN,18089,Lake,Crown Point,496005.00,1292.30,498.96,330.48,127.60,1622.78,626.56,41.472,–87.3743
IN,18091,LaPorte,LaPorte,111467.00,1549.59,598.30,38.75,14.96,1588.34,613.26,41.549,–86.7447
IN,18093,Lawrence,Bedford,46134.00,1163.34,449.17,7.15,2.76,1170.49,451.93,38.840,–86.4878
IN,18095,Madison,Anderson,131636.00,1170.46,451.92,2.56,0.99,1173.02,452.90,40.166,–85.7224
IN,18097,Marion,Indianapolis,903393.00,1026.41,396.30,17.38,6.71,1043.79,403.01,39.783,–86.1357
IN,18099,Marshall,Plymouth,47051.00,1148.99,443.63,15.84,6.11,1164.83,449.74,41.325,–86.2690
IN,18101,Martin,Shoals,10334.00,869.56,335.74,12.09,4.67,881.65,340.41,38.705,–86.8018
IN,18103,Miami,Peru,36903.00,968.25,373.84,9.19,3.55,977.43,377.39,40.773,–86.0442
IN,18105,Monroe,Bloomington,137974.00,1021.77,394.51,43.54,16.81,1065.32,411.32,39.161,–86.5233
IN,18107,Montgomery,Crawfordsville,38124.00,1306.94,504.61,2.16,0.83,1309.10,505.45,40.040,–86.8927
IN,18109,Morgan,Martinsville,68894.00,1046.28,403.97,14.14,5.46,1060.41,409.43,39.483,–86.4474
IN,18111,Newton,Kentland,14244.00,1040.55,401.76,4.35,1.68,1044.90,403.44,40.962,–87.4021
IN,18113,Noble,Albion,47536.00,1064.08,410.84,17.07,6.59,1081.15,417.43,41.401,–85.4178
IN,18115,Ohio,Rising Sun,6128.00,223.10,86.14,3.35,1.29,226.45,87.43,38.941,–84.9642
IN,18117,Orange,Paoli,19840.00,1031.82,398.39,25.39,9.81,1057.21,408.19,38.547,–86.4892
IN,18119,Owen,Spencer,21575.00,997.89,385.29,6.57,2.54,1004.46,387.83,39.317,–86.8388
IN,18121,Parke,Rockville,17339.00,1151.67,444.66,13.77,5.32,1165.44,449.98,39.774,–87.1969
IN,18123,Perry,Tell City,19338.00,988.67,381.73,11.82,4.56,1000.49,386.29,38.081,–86.6265
IN,18125,Pike,Petersburg,12845.00,865.67,334.24,17.76,6.86,883.43,341.09,38.398,–87.2325
IN,18127,Porter,Valparaiso,164343.00,1083.01,418.15,268.40,103.63,1351.41,521.78,41.510,–87.0713
IN,18129,Posey,Mount Vernon,25910.00,1060.78,409.57,25.26,9.75,1086.05,419.33,38.028,–87.8686
IN,18131,Pulaski,Winamac,13402.00,1123.15,433.65,2.29,0.89,1125.44,434.53,41.045,–86.6925
IN,18133,Putnam,Greencastle,37963.00,1244.56,480.53,5.61,2.16,1250.17,482.69,39.666,–86.8533
IN,18135,Randolph,Winchester,26171.00,1171.66,452.38,2.42,0.94,1174.08,453.31,40.164,–85.0050
IN,18137,Ripley,Versailles,28818.00,1156.24,446.43,4.24,1.64,1160.47,448.06,39.100,–85.2605
IN,18139,Rush,Rushville,17392.00,1057.04,408.12,0.87,0.34,1057.91,408.46,39.622,–85.4665
IN,18141,St. Joseph,South Bend,266931.00,1185.83,457.85,9.16,3.54,1194.98,461.39,41.618,–86.2881
IN,18143,Scott,Scottsburg,24181.00,493.13,190.40,6.09,2.35,499.22,192.75,38.679,–85.7518
IN,18145,Shelby,Shelbyville,44436.00,1064.87,411.15,4.17,1.61,1069.03,412.76,39.524,–85.7921
IN,18147,Spencer,Rockport,20952.00,1027.56,396.74,12.13,4.68,1039.69,401.43,38.010,–87.0106
IN,18149,Starke,Knox,23363.00,800.65,309.13,7.96,3.07,808.61,312.21,41.283,–86.6475
IN,18151,Steuben,Angola,34185.00,800.15,308.94,35.03,13.53,835.18,322.47,41.643,–85.0024
IN,18153,Sullivan,Sullivan,21475.00,1158.09,447.14,18.06,6.97,1176.16,454.12,39.089,–87.4158
IN,18155,Switzerland,Vevay,10613.00,571.44,220.63,7.27,2.81,578.70,223.44,38.826,–85.0296
IN,18157,Tippecanoe,Lafayette,172780.00,1294.49,499.81,8.90,3.44,1303.39,503.24,40.389,–86.8939
IN,18159,Tipton,Tipton,15936.00,674.80,260.54,0.07,0.03,674.87,260.57,40.310,–86.0562
IN,18161,Union,Liberty,7516.00,417.57,161.22,10.24,3.95,427.81,165.18,39.623,–84.9251
IN,18163,Vanderburgh,Evansville,179703.00,604.70,233.48,7.39,2.86,612.09,236.33,38.020,–87.5861
IN,18165,Vermillion,Newport,16212.00,665.31,256.88,7.91,3.05,673.22,259.93,39.854,–87.4620
IN,18167,Vigo,Terre Haute,107848.00,1044.58,403.31,18.49,7.14,1063.06,410.45,39.429,–87.3903
IN,18169,Wabash,Wabash,32888.00,1068.20,412.43,22.12,8.54,1090.32,420.98,40.844,–85.7951
IN,18171,Warren,Williamsport,8508.00,944.52,364.68,4.47,1.72,948.99,366.41,40.353,–87.3758
IN,18173,Warrick,Boonville,59689.00,996.67,384.82,16.16,6.24,1012.82,391.05,38.098,–87.2720
IN,18175,Washington,Salem,28262.00,1330.54,513.73,7.44,2.87,1337.99,516.60,38.601,–86.1047
IN,18177,Wayne,Richmond,68917.00,1040.50,401.74,6.74,2.60,1047.24,404.34,39.863,–85.0067
IN,18179,Wells,Bluffton,27636.00,953.34,368.09,5.60,2.16,958.94,370.25,40.735,–85.2129
IN,18181,White,Monticello,24643.00,1308.27,505.13,9.21,3.56,1317.47,508.68,40.751,–86.8642
IN,18183,Whitley,Columbia City,33292.00,869.12,335.57,6.07,2.35,875.19,337.91,41.136,–85.5018
IA,19001,Adair,Greenfield,7682.00,1474.40,569.27,2.60,1.00,1477.00,570.27,41.329,–94.4781
IA,19003,Adams,Corning,4029.00,1096.70,423.44,5.35,2.07,1102.05,425.51,41.022,–94.6969
IA,19005,Allamakee,Waukon,14330.00,1655.21,639.08,51.00,19.69,1706.21,658.77,43.275,–91.3827
IA,19007,Appanoose,Centerville,12887.00,1287.98,497.29,49.08,18.95,1337.07,516.24,40.745,–92.8703
IA,19009,Audubon,Audubon,6119.00,1147.26,442.96,1.15,0.45,1148.42,443.41,41.679,–94.9043
IA,19011,Benton,Vinton,26076.00,1855.12,716.27,5.76,2.22,1860.88,718.49,42.093,–92.0576
IA,19013,Black Hawk,Waterloo,131090.00,1465.33,565.77,17.90,6.91,1483.23,572.68,42.473,–92.3060
IA,19015,Boone,Boone,26306.00,1480.36,571.57,5.37,2.07,1485.72,573.64,42.039,–93.9391
IA,19017,Bremer,Waverly,24276.00,1127.88,435.48,10.17,3.93,1138.05,439.40,42.781,–92.3275
IA,19019,Buchanan,Independence,20958.00,1478.94,571.02,5.43,2.10,1484.36,573.12,42.470,–91.8386
IA,19021,Buena Vista,Storm Lake,20260.00,1489.02,574.92,13.76,5.31,1502.78,580.23,42.742,–95.1414
IA,19023,Butler,Allison,14867.00,1502.53,580.13,4.21,1.63,1506.74,581.76,42.735,–92.7800
IA,19025,Calhoun,Rockwell City,9670.00,1476.21,569.97,5.56,2.15,1481.77,572.12,42.386,–94.6436
IA,19027,Carroll,Carroll,20816.00,1474.84,569.44,2.15,0.83,1476.98,570.27,42.039,–94.8676
IA,19029,Cass,Atlantic,13956.00,1461.45,564.27,1.76,0.68,1463.21,564.95,41.334,–94.9333
IA,19031,Cedar,Tipton,18499.00,1500.73,579.44,6.39,2.47,1507.12,581.90,41.772,–91.1321
IA,19033,Cerro Gordo,Mason City,44151.00,1471.92,568.31,17.63,6.81,1489.55,575.12,43.075,–93.2512
IA,19035,Cherokee,Cherokee,12072.00,1494.18,576.91,0.42,0.16,1494.60,577.07,42.743,–95.6332
IA,19037,Chickasaw,New Hampton,12439.00,1306.34,504.38,3.31,1.28,1309.65,505.66,43.060,–92.3172
IA,19039,Clarke,Osceola,9286.00,1116.72,431.17,1.53,0.59,1118.24,431.76,41.029,–93.7840
IA,19041,Clay,Spencer,16667.00,1469.14,567.24,13.87,5.35,1483.01,572.59,43.080,–95.1497
IA,19043,Clayton,Elkader,18129.00,2016.41,778.54,36.59,14.13,2052.99,792.67,42.841,–91.3235
IA,19045,Clinton,Clinton,49116.00,1799.82,694.92,39.52,15.26,1839.35,710.18,41.898,–90.5342
IA,19047,Crawford,Denison,17096.00,1849.74,714.19,2.19,0.85,1851.94,715.04,42.043,–95.3890
IA,19049,Dallas,Adel,66135.00,1524.07,588.45,8.42,3.25,1532.49,591.70,41.685,–94.0407
IA,19051,Davis,Bloomfield,8753.00,1300.66,502.19,6.90,2.67,1307.57,504.85,40.748,–92.4103
IA,19053,Decatur,Leon,8457.00,1377.57,531.88,4.14,1.60,1381.71,533.48,40.736,–93.7845
IA,19055,Delaware,Manchester,17764.00,1496.38,577.76,3.08,1.19,1499.46,578.95,42.473,–91.3594
IA,19057,Des Moines,Burlington,40325.00,1077.76,416.12,35.29,13.63,1113.05,429.75,40.915,–91.1869
IA,19059,Dickinson,Spirit Lake,16667.00,985.76,380.61,60.49,23.36,1046.26,403.96,43.390,–95.1960
IA,19061,Dubuque,Dubuque,93653.00,1575.50,608.31,21.57,8.33,1597.07,616.63,42.463,–90.8787
IA,19063,Emmet,Estherville,10302.00,1025.33,395.88,17.20,6.64,1042.53,402.52,43.378,–94.6693
IA,19065,Fayette,West Union,20880.00,1892.79,730.81,1.33,0.52,1894.13,731.33,42.864,–91.8393
IA,19067,Floyd,Charles City,16303.00,1296.63,500.63,1.94,0.75,1298.57,501.38,43.053,–92.7873
IA,19069,Franklin,Hampton,10680.00,1507.30,581.97,1.43,0.55,1508.73,582.52,42.737,–93.2714
IA,19071,Fremont,Sidney,7441.00,1323.87,511.15,14.21,5.49,1338.09,516.64,40.744,–95.5995
IA,19073,Greene,Jefferson,9336.00,1475.19,569.57,4.25,1.64,1479.44,571.22,42.042,–94.3887
IA,19075,Grundy,Grundy Center,12453.00,1299.81,501.86,0.09,0.04,1299.90,501.89,42.403,–92.7902
IA,19077,Guthrie,Guthrie Center,10954.00,1529.70,590.62,6.36,2.45,1536.06,593.07,41.684,–94.5012
IA,19079,Hamilton,Webster City,15673.00,1493.78,576.75,1.97,0.76,1495.74,577.51,42.391,–93.7091
IA,19081,Hancock,Garner,11341.00,1478.90,571.01,5.27,2.03,1484.16,573.04,43.075,–93.7436
IA,19083,Hardin,Eldora,17534.00,1474.50,569.31,1.77,0.69,1476.27,569.99,42.390,–93.2410
IA,19085,Harrison,Logan,14928.00,1804.83,696.85,12.42,4.80,1817.25,701.64,41.689,–95.8271
IA,19087,Henry,Mount Pleasant,20145.00,1124.90,434.33,5.78,2.23,1130.69,436.56,40.986,–91.5442
IA,19089,Howard,Cresco,9566.00,1225.71,473.25,0.93,0.36,1226.63,473.61,43.365,–92.3219
IA,19091,Humboldt,Dakota City,9815.00,1124.97,434.35,3.41,1.32,1128.37,435.67,42.782,–94.2027
IA,19093,Ida,Ida Grove,7089.00,1117.60,431.51,1.41,0.54,1119.01,432.05,42.392,–95.5074
IA,19095,Iowa,Marengo,16355.00,1518.92,586.46,2.69,1.04,1521.60,587.49,41.684,–92.0591
IA,19097,Jackson,Maquoketa,19848.00,1647.33,636.04,35.14,13.57,1682.47,649.61,42.164,–90.5745
IA,19099,Jasper,Newton,36842.00,1891.78,730.42,6.57,2.54,1898.35,732.96,41.686,–93.0529
IA,19101,Jefferson,Fairfield,16843.00,1127.97,435.51,3.54,1.37,1131.50,436.88,41.007,–91.9671
IA,19103,Johnson,Iowa City,130882.00,1590.36,614.04,23.60,9.11,1613.95,623.15,41.669,–91.5888
IA,19105,Jones,Anamosa,20638.00,1490.85,575.62,3.58,1.38,1494.43,577.00,42.125,–91.1169
IA,19107,Keokuk,Sigourney,10511.00,1500.07,579.18,1.93,0.75,1502.00,579.92,41.331,–92.1677
IA,19109,Kossuth,Algona,15543.00,2519.33,972.72,4.16,1.60,2523.49,974.32,43.212,–94.2139
IA,19111,Lee,"Fort Madison, Keokuk",35862.00,1340.37,517.52,55.29,21.35,1395.66,538.87,40.648,–91.4771
IA,19113,Linn,Cedar Rapids,211226.00,1856.71,716.88,19.75,7.63,1876.46,724.51,42.078,–91.5976
IA,19115,Louisa,Wapello,11387.00,1040.57,401.77,40.80,15.75,1081.37,417.52,41.218,–91.2569
IA,19117,Lucas,Chariton,8898.00,1115.23,430.59,9.85,3.80,1125.08,434.40,41.033,–93.3314
IA,19119,Lyon,Rock Rapids,11581.00,1522.01,587.65,0.33,0.13,1522.34,587.78,43.384,–96.2072
IA,19121,Madison,Winterset,15679.00,1453.00,561.01,2.98,1.15,1455.98,562.16,41.331,–94.0151
IA,19123,Mahaska,Oskaloosa,22381.00,1478.53,570.86,6.57,2.54,1485.09,573.40,41.331,–92.6363
IA,19125,Marion,Knoxville,33309.00,1436.24,554.53,41.38,15.98,1477.61,570.51,41.331,–93.0938
IA,19127,Marshall,Marshalltown,40648.00,1482.77,572.50,1.80,0.70,1484.57,573.20,42.042,–92.9814
IA,19129,Mills,Glenwood,15059.00,1132.96,437.44,8.31,3.21,1141.26,440.64,41.034,–95.6191
IA,19131,Mitchell,Osage,10776.00,1215.05,469.13,1.12,0.43,1216.17,469.57,43.349,–92.7844
IA,19133,Monona,Onawa,9243.00,1797.64,694.07,12.59,4.86,1810.23,698.93,42.049,–95.9565
IA,19135,Monroe,Albia,7970.00,1123.32,433.72,1.52,0.59,1124.84,434.30,41.029,–92.8696
IA,19137,Montgomery,Red Oak,10740.00,1098.41,424.10,2.41,0.93,1100.82,425.03,41.022,–95.1577
IA,19139,Muscatine,Muscatine,42745.00,1133.04,437.47,30.20,11.66,1163.24,449.13,41.484,–91.1186
IA,19141,O'Brien,Primghar,14398.00,1484.15,573.04,0.45,0.17,1484.60,573.21,43.084,–95.6256
IA,19143,Osceola,Sibley,6462.00,1032.59,398.68,1.84,0.71,1034.42,399.39,43.379,–95.6337
IA,19145,Page,Clarinda,15932.00,1385.49,534.94,1.36,0.53,1386.85,535.47,40.739,–95.1442
IA,19147,Palo Alto,Emmetsburg,9421.00,1460.35,563.84,14.48,5.59,1474.83,569.44,43.076,–94.6672
IA,19149,Plymouth,Le Mars,24986.00,2234.88,862.89,2.18,0.84,2237.06,863.73,42.738,–96.2158
IA,19151,Pocahontas,Pocahontas,7310.00,1495.05,577.24,3.67,1.42,1498.71,578.66,42.734,–94.6782
IA,19153,Polk,Des Moines,430640.00,1486.12,573.80,45.95,17.74,1532.07,591.54,41.684,–93.5697
IA,19155,Pottawattamie,Council Bluffs,93158.00,2461.21,950.28,22.93,8.85,2484.14,959.13,41.340,–95.5449
IA,19157,Poweshiek,Montezuma,18914.00,1514.97,584.93,2.94,1.14,1517.91,586.07,41.685,–92.5228
IA,19159,Ringgold,Mount Ayr,5131.00,1386.93,535.50,8.72,3.37,1395.66,538.87,40.735,–94.2442
IA,19161,Sac,Sac City,10350.00,1489.27,575.01,8.60,3.32,1497.87,578.33,42.388,–95.1052
IA,19163,Scott,Davenport,165224.00,1186.44,458.09,26.22,10.12,1212.66,468.21,41.642,–90.6222
IA,19165,Shelby,Harlan,12167.00,1530.11,590.78,1.49,0.57,1531.60,591.35,41.679,–95.3089
IA,19167,Sioux,Orange City,33704.00,1989.97,768.33,1.71,0.66,1991.68,768.99,43.083,–96.1779
IA,19169,Story,Nevada,89542.00,1483.59,572.82,2.15,0.83,1485.75,573.65,42.038,–93.4660
IA,19171,Tama,Toledo,17767.00,1867.41,721.01,2.77,1.07,1870.18,722.08,42.075,–92.5294
IA,19173,Taylor,Bedford,6317.00,1377.62,531.90,7.13,2.75,1384.75,534.66,40.738,–94.6971
IA,19175,Union,Creston,12534.00,1097.24,423.65,5.58,2.15,1102.81,425.80,41.029,–94.2450
IA,19177,Van Buren,Keosauqua,7570.00,1255.60,484.79,14.84,5.73,1270.44,490.52,40.754,–91.9529
IA,19179,Wapello,Ottumwa,35625.00,1118.44,431.83,10.85,4.19,1129.29,436.02,41.031,–92.4094
IA,19181,Warren,Indianola,46225.00,1475.85,569.83,9.13,3.52,1484.97,573.35,41.337,–93.5643
IA,19183,Washington,Washington,21704.00,1473.28,568.84,5.40,2.09,1478.68,570.92,41.329,–91.7250
IA,19185,Wayne,Corydon,6403.00,1360.88,525.44,4.44,1.72,1365.32,527.15,40.740,–93.3326
IA,19187,Webster,Fort Dodge,38013.00,1853.44,715.62,7.28,2.81,1860.72,718.43,42.434,–94.1791
IA,19189,Winnebago,Forest City,10866.00,1037.26,400.49,3.18,1.23,1040.44,401.72,43.378,–93.7434
IA,19191,Winneshiek,Decorah,21056.00,1786.75,689.87,0.70,0.27,1787.45,690.14,43.293,–91.8507
IA,19193,Woodbury,Sioux City,102172.00,2260.63,872.83,12.79,4.94,2273.42,877.77,42.393,–96.0532
IA,19195,Worth,Northwood,7598.00,1036.32,400.12,4.71,1.82,1041.02,401.94,43.373,–93.2485
IA,19197,Wright,Clarion,13229.00,1503.29,580.42,4.70,1.82,1507.99,582.24,42.733,–93.7347
KS,20001,Allen,Iola,13371.00,1295.78,500.30,13.01,5.02,1308.79,505.33,37.884,–95.3009
KS,20003,Anderson,Garnett,8102.00,1501.28,579.65,10.59,4.09,1511.86,583.73,38.215,–95.2920
KS,20005,Atchison,Atchison,16924.00,1116.73,431.17,6.86,2.65,1123.59,433.82,39.533,–95.3133
KS,20007,Barber,Medicine Lodge,4861.00,2937.24,1134.07,5.42,2.09,2942.66,1136.17,37.223,–98.6850
KS,20009,Barton,Great Bend,27674.00,2319.08,895.40,13.56,5.23,2332.63,900.63,38.481,–98.7678
KS,20011,Bourbon,Fort Scott,15173.00,1645.86,635.47,9.38,3.62,1655.24,639.09,37.856,–94.8509
KS,20013,Brown,Hiawatha,9984.00,1478.55,570.87,3.20,1.23,1481.75,572.11,39.826,–95.5699
KS,20015,Butler,El Dorado,65880.00,3703.33,1429.86,43.16,16.66,3746.49,1446.53,37.774,–96.8387
KS,20017,Chase,Cottonwood Falls,2790.00,2002.22,773.06,12.09,4.67,2014.31,777.73,38.299,–96.5940
KS,20019,Chautauqua,Sedan,3669.00,1654.69,638.88,15.24,5.89,1669.94,644.77,37.154,–96.2453
KS,20021,Cherokee,Columbus,21603.00,1521.79,587.57,8.95,3.46,1530.74,591.02,37.169,–94.8456
KS,20023,Cheyenne,St. Francis,2726.00,2641.50,1019.89,2.74,1.06,2644.23,1020.94,39.789,–101.727
KS,20025,Clark,Ashland,2215.00,2524.29,974.63,6.61,2.55,2530.89,977.18,37.234,–99.8138
KS,20027,Clay,Clay Center,8535.00,1671.32,645.30,26.67,10.30,1698.00,655.60,39.345,–97.1688
KS,20029,Cloud,Concordia,9533.00,1852.73,715.34,6.86,2.65,1859.59,717.99,39.487,–97.6413
KS,20031,Coffey,Burlington,8601.00,1623.78,626.95,70.31,27.15,1694.10,654.09,38.236,–95.7291
KS,20033,Comanche,Coldwater,1891.00,2041.68,788.30,3.60,1.39,2045.29,789.69,37.189,–99.2540
KS,20035,Cowley,Winfield,36311.00,2915.68,1125.75,17.29,6.68,2932.97,1132.43,37.235,–96.8372
KS,20037,Crawford,Girard,39134.00,1527.46,589.76,13.61,5.26,1541.07,595.01,37.506,–94.8539
KS,20039,Decatur,Oberlin,2961.00,2314.20,893.52,1.63,0.63,2315.83,894.15,39.784,–100.459
KS,20041,Dickinson,Abilene,19754.00,2193.91,847.07,12.64,4.88,2206.54,851.95,38.868,–97.1579
KS,20043,Doniphan,Troy,7945.00,1018.92,393.41,12.62,4.87,1031.53,398.28,39.789,–95.1472
KS,20045,Douglas,Lawrence,110826.00,1180.70,455.87,48.60,18.77,1229.30,474.64,38.897,–95.2905
KS,20047,Edwards,Kinsley,3037.00,1610.70,621.89,0.21,0.08,1610.91,621.98,37.884,–99.3047
KS,20049,Elk,Howard,2882.00,1668.64,644.27,16.06,6.20,1684.70,650.47,37.456,–96.2446
KS,20051,Ellis,Hays,28452.00,2330.76,899.91,1.20,0.46,2331.96,900.37,38.915,–99.3173
KS,20053,Ellsworth,Ellsworth,6497.00,1854.04,715.85,19.27,7.44,1873.31,723.29,38.701,–98.2053
KS,20055,Finney,Garden City,36776.00,3372.08,1301.97,1.83,0.71,3373.91,1302.67,38.050,–100.739
KS,20057,Ford,Dodge City,33848.00,2844.51,1098.27,2.10,0.81,2846.61,1099.08,37.688,–99.8847
KS,20059,Franklin,Ottawa,25992.00,1480.84,571.76,13.94,5.38,1494.78,577.14,38.558,–95.2789
KS,20061,Geary,Junction City,34362.00,996.16,384.62,51.46,19.87,1047.61,404.49,39.002,–96.7680
KS,20063,Gove,Gove City,2695.00,2775.60,1071.67,0.25,0.10,2775.84,1071.76,38.917,–100.487
KS,20065,Graham,Hill City,2597.00,2327.16,898.52,0.60,0.23,2327.76,898.75,39.349,–99.8809
KS,20067,Grant,Ulysses,7829.00,1488.73,574.80,0.89,0.35,1489.62,575.15,37.548,–101.299
KS,20069,Gray,Cimarron,6006.00,2250.36,868.87,1.11,0.43,2251.47,869.30,37.745,–100.451
KS,20071,Greeley,Tribune,1247.00,2016.18,778.45,,,,,,
KS,20073,Greenwood,Eureka,6689.00,2961.13,1143.30,24.16,9.33,2985.29,1152.63,37.879,–96.2422
KS,20075,Hamilton,Syracuse,2690.00,2580.94,996.51,2.91,1.12,2583.85,997.63,37.995,–101.793
KS,20077,Harper,Anthony,6034.00,2075.28,801.27,3.91,1.51,2079.19,802.78,37.188,–98.0665
KS,20079,Harvey,Newton,34684.00,1397.96,539.75,2.51,0.97,1400.47,540.72,38.050,–97.4367
KS,20081,Haskell,Sublette,4256.00,1495.77,577.52,0.91,0.35,1496.68,577.87,37.559,–100.876
KS,20083,Hodgeman,Jetmore,1916.00,2227.37,859.99,0.83,0.32,2228.20,860.31,38.087,–99.8984
KS,20085,Jackson,Holton,13462.00,1699.59,656.22,4.67,1.80,1704.26,658.02,39.411,–95.7945
KS,20087,Jefferson,Oskaloosa,19126.00,1379.36,532.57,62.43,24.10,1441.79,556.68,39.240,–95.3753
KS,20089,Jewell,Mankato,3077.00,2356.32,909.78,11.86,4.58,2368.18,914.36,39.777,–98.2225
KS,20091,Johnson,Olathe,544179.00,1226.03,473.38,16.89,6.52,1242.93,479.90,38.884,–94.8223
KS,20093,Kearny,Lakin,3977.00,2254.70,870.54,1.13,0.44,2255.83,870.98,37.994,–101.308
KS,20095,Kingman,Kingman,7858.00,2236.10,863.36,8.54,3.30,2244.64,866.66,37.553,–98.1445
KS,20097,Kiowa,Greensburg,2553.00,1871.63,722.64,0.60,0.23,1872.22,722.87,37.561,–99.2865
KS,20099,Labette,Oswego,21607.00,1671.31,645.30,20.26,7.82,1691.57,653.12,37.191,–95.2974
KS,20101,Lane,Dighton,1750.00,1858.20,717.46,0.55,0.21,1858.75,717.67,38.481,–100.466
KS,20103,Leavenworth,Leavenworth,76227.00,1198.73,462.83,15.91,6.14,1214.63,468.97,39.190,–95.0389
KS,20105,Lincoln,Lincoln Center,3241.00,1863.23,719.40,2.75,1.06,1865.98,720.46,39.047,–98.2142
KS,20107,Linn,Mound City,9656.00,1538.61,594.06,31.95,12.34,1570.56,606.40,38.217,–94.8449
KS,20109,Logan,Oakley,2756.00,2779.04,1072.99,0.28,0.11,2779.32,1073.10,38.913,–101.157
KS,20111,Lyon,Emporia,33690.00,2194.95,847.47,20.57,7.94,2215.52,855.42,38.455,–96.1615
KS,20113,McPherson,Marion,29180.00,2326.52,898.27,6.03,2.33,2332.55,900.60,38.396,–97.6474
KS,20115,Marion,Marysville,12660.00,2445.70,944.29,24.45,9.44,2470.15,953.73,38.360,–97.1027
KS,20117,Marshall,McPherson,10117.00,2331.46,900.18,12.75,4.92,2344.22,905.11,39.783,–96.5212
KS,20119,Meade,Meade,4575.00,2533.24,978.09,3.26,1.26,2536.49,979.35,37.244,–100.360
KS,20121,Miami,Paola,32787.00,1490.96,575.66,37.80,14.60,1528.76,590.26,38.567,–94.8329
KS,20123,Mitchell,Beloit,6373.00,1817.63,701.79,44.98,17.37,1862.61,719.16,39.393,–98.2073
KS,20125,Montgomery,Independence,35471.00,1666.73,643.53,20.60,7.95,1687.33,651.48,37.190,–95.7424
KS,20127,Morris,Council Grove,5923.00,1800.76,695.28,19.71,7.61,1820.48,702.89,38.688,–96.6449
KS,20129,Morton,Elkhart,3233.00,1889.99,729.73,0.51,0.20,1890.50,729.93,37.185,–101.809
KS,20131,Nemaha,Seneca,10178.00,1858.13,717.43,5.21,2.01,1863.33,719.44,39.791,–96.0053
KS,20133,Neosho,Erie,16512.00,1480.11,571.47,16.37,6.32,1496.48,577.79,37.564,–95.3156
KS,20135,Ness,Ness City,3107.00,2783.59,1074.75,0.67,0.26,2784.26,1075.01,38.480,–99.9087
KS,20137,Norton,Norton,5671.00,2274.36,878.13,8.20,3.16,2282.55,881.30,39.784,–99.8992
KS,20139,Osage,Lyndon,16295.00,1827.28,705.52,37.11,14.33,1864.39,719.85,38.650,–95.7272
KS,20141,Osborne,Osborne,3858.00,2311.57,892.50,4.81,1.86,2316.38,894.36,39.349,–98.7678
KS,20143,Ottawa,Minneapolis,6091.00,1866.69,720.73,1.56,0.60,1868.25,721.34,39.138,–97.6548
KS,20145,Pawnee,Larned,6973.00,1953.53,754.26,0.99,0.38,1954.52,754.65,38.183,–99.2321
KS,20147,Phillips,Phillipsburg,5642.00,2294.41,885.88,22.49,8.69,2316.90,894.56,39.785,–99.3421
KS,20149,Pottawatomie,Westmoreland,21604.00,2178.24,841.02,54.10,20.89,2232.34,861.91,39.382,–96.3371
KS,20151,Pratt,Pratt,9656.00,1903.76,735.05,1.75,0.68,1905.51,735.72,37.648,–98.7401
KS,20153,Rawlins,Atwood,2519.00,2769.78,1069.42,0.42,0.16,2770.19,1069.58,39.786,–101.076
KS,20155,Reno,Hutchinson,64511.00,3251.33,1255.35,43.42,16.76,3294.75,1272.11,37.948,–98.0783
KS,20157,Republic,Belleville,4980.00,1857.98,717.37,7.97,3.08,1865.95,720.45,39.829,–97.6509
KS,20159,Rice,Lyons,10083.00,1880.95,726.24,4.47,1.73,1885.42,727.96,38.347,–98.2014
KS,20161,Riley,Manhattan,71115.00,1579.30,609.77,31.56,12.19,1610.86,621.96,39.291,–96.7274
KS,20163,Rooks,Stockton,5181.00,2306.47,890.53,11.96,4.62,2318.43,895.15,39.346,–99.3244
KS,20165,Rush,La Crosse,3307.00,1859.00,717.76,0.55,0.21,1859.54,717.97,38.524,–99.3091
KS,20167,Russell,Russell,6970.00,2295.40,886.26,34.13,13.18,2329.53,899.44,38.917,–98.7656
KS,20169,Saline,Salina,55606.00,1865.37,720.23,2.81,1.09,1868.18,721.31,38.786,–97.6501
KS,20171,Scott,Scott City,4936.00,1858.43,717.54,0.31,0.12,1858.74,717.66,38.482,–100.906
KS,20173,Sedgwick,Wichita,498365.00,2583.54,997.51,30.07,11.61,2613.61,1009.12,37.684,–97.4594
KS,20175,Seward,Liberal,22952.00,1656.29,639.50,2.56,0.99,1658.85,640.49,37.181,–100.854
KS,20177,Shawnee,Topeka,177934.00,1409.00,544.02,30.33,11.71,1439.33,555.73,39.042,–95.7556
KS,20179,Sheridan,Hoxie,2556.00,2320.52,895.96,0.65,0.25,2321.17,896.21,39.351,–100.441
KS,20181,Sherman,Goodland,6010.00,2735.20,1056.07,0.55,0.21,2735.75,1056.28,39.351,–101.719
KS,20183,Smith,Smith Center,3853.00,2319.24,895.47,3.88,1.50,2323.13,896.97,39.785,–98.7854
KS,20185,Stafford,St. John,4437.00,2051.39,792.05,7.44,2.87,2058.83,794.92,38.036,–98.7198
KS,20187,Stanton,Johnson City,2235.00,1762.09,680.35,0.18,0.07,1762.27,680.42,37.566,–101.789
KS,20189,Stevens,Hugoton,5724.00,1883.68,727.29,0.47,0.18,1884.14,727.47,37.202,–101.315
KS,20191,Sumner,Wellington,24132.00,3061.21,1181.94,7.81,3.01,3069.02,1184.96,37.237,–97.4933
KS,20193,Thomas,Colby,7900.00,2783.43,1074.69,0.29,0.11,2783.71,1074.80,39.358,–101.083
KS,20195,Trego,WaKeeney,3001.00,2303.74,889.48,26.28,10.15,2330.02,899.63,38.921,–99.8654
KS,20197,Wabaunsee,Alma,7053.00,2057.23,794.30,13.78,5.32,2071.01,799.62,38.955,–96.2012
KS,20199,Wallace,Sharon Springs,1485.00,2366.35,913.65,0.14,0.05,2366.49,913.71,38.927,–101.771
KS,20201,Washington,Washington,5799.00,2317.41,894.76,10.14,3.92,2327.55,898.67,39.777,–97.0956
KS,20203,Wichita,Leoti,2234.00,1861.08,718.57,0.06,0.02,1861.14,718.59,38.482,–101.347
KS,20205,Wilson,Fredonia,9409.00,1477.38,570.42,12.06,4.66,1489.43,575.07,37.559,–95.7451
KS,20207,Woodson,Yates Center,3309.00,1289.35,497.82,19.25,7.43,1308.60,505.25,37.888,–95.7575
KS,20209,Wyandotte,Kansas City,157505.00,392.64,151.60,11.90,4.59,404.54,156.19,39.115,–94.7630
KY,21001,Adair,Columbia,18656.00,1049.68,405.28,18.43,7.12,1068.11,412.40,37.106,–85.2814
KY,21003,Allen,Scottsville,19956.00,891.83,344.34,19.49,7.53,911.32,351.86,36.751,–86.1924
KY,21005,Anderson,Lawrenceburg,21421.00,522.74,201.83,6.32,2.44,529.06,204.27,38.005,–84.9864
KY,21007,Ballard,Wickliffe,8249.00,638.84,246.66,70.01,27.03,708.85,273.69,37.051,–89.0091
KY,21009,Barren,Glasgow,42173.00,1262.73,487.54,32.27,12.46,1294.99,500.00,36.964,–85.9249
KY,21011,Bath,Owingsville,11591.00,722.07,278.79,13.50,5.21,735.57,284.00,38.152,–83.7376
KY,21013,Bell,Pineville,28691.00,929.81,359.00,5.48,2.12,935.29,361.12,36.723,–83.6810
KY,21015,Boone,Burlington,118811.00,638.07,246.36,26.17,10.11,664.24,256.46,38.975,–84.7314
KY,21017,Bourbon,Paris,19985.00,750.37,289.72,4.85,1.87,755.22,291.59,38.203,–84.2098
KY,21019,Boyd,Catlettsburg,49542.00,414.05,159.86,5.59,2.16,419.64,162.02,38.360,–82.6814
KY,21021,Boyle,Danville,28432.00,466.64,180.17,6.46,2.49,473.09,182.66,37.618,–84.8730
KY,21023,Bracken,Brooksville,8488.00,532.53,205.61,8.64,3.34,541.17,208.95,38.679,–84.1003
KY,21025,Breathitt,Jackson,13878.00,1275.34,492.41,7.39,2.85,1282.74,495.27,37.521,–83.3224
KY,21027,Breckinridge,Hardinsburg,20059.00,1468.97,567.17,47.78,18.45,1516.75,585.62,37.778,–86.4328
KY,21029,Bullitt,Shepherdsville,74319.00,769.29,297.02,8.39,3.24,777.68,300.27,37.970,–85.7030
KY,21031,Butler,Morgantown,12690.00,1103.56,426.09,13.95,5.39,1117.51,431.47,37.207,–86.6824
KY,21033,Caldwell,Princeton,12984.00,893.01,344.79,8.70,3.36,901.71,348.15,37.149,–87.8705
KY,21035,Calloway,Murray,37191.00,997.20,385.02,66.50,25.68,1063.70,410.70,36.621,–88.2740
KY,21037,Campbell,"Alexandria, Newport",90336.00,391.89,151.31,21.01,8.11,412.90,159.42,38.947,–84.3795
KY,21039,Carlisle,Bardwell,5104.00,490.63,189.43,24.72,9.55,515.36,198.98,36.858,–88.9757
KY,21041,Carroll,Carrollton,10811.00,332.99,128.57,22.65,8.75,355.64,137.32,38.668,–85.1240
KY,21043,Carter,Grayson,27720.00,1060.59,409.50,6.80,2.63,1067.39,412.12,38.310,–83.0488
KY,21045,Casey,Liberty,15955.00,1150.55,444.23,3.90,1.51,1154.45,445.74,37.322,–84.9282
KY,21047,Christian,Hopkinsville,73955.00,1858.32,717.50,16.94,6.54,1875.26,724.04,36.893,–87.4935
KY,21049,Clark,Winchester,35613.00,653.88,252.46,6.97,2.69,660.85,255.16,37.970,–84.1449
KY,21051,Clay,Manchester,21730.00,1215.35,469.25,4.76,1.84,1220.11,471.09,37.164,–83.7107
KY,21053,Clinton,Albany,10272.00,510.86,197.25,21.16,8.17,532.03,205.42,36.729,–85.1534
KY,21055,Crittenden,Marion,9315.00,932.27,359.95,28.98,11.19,961.25,371.14,37.358,–88.1050
KY,21057,Cumberland,Burkesville,6856.00,790.42,305.18,14.83,5.73,805.25,310.91,36.784,–85.3934
KY,21059,Daviess,Owensboro,96656.00,1187.11,458.35,47.21,18.23,1234.32,476.57,37.732,–87.0871
KY,21061,Edmonson,Brownsville,12161.00,784.46,302.88,13.26,5.12,797.73,308.00,37.228,–86.2177
KY,21063,Elliott,Sandy Hook,7852.00,606.87,234.32,2.61,1.01,609.48,235.32,38.116,–83.0975
KY,21065,Estill,Irvine,14672.00,655.47,253.08,6.56,2.53,662.03,255.61,37.692,–83.9639
KY,21067,Fayette,Lexington,295803.00,734.65,283.65,4.92,1.90,739.57,285.55,38.040,–84.4584
KY,21069,Fleming,Flemingsburg,14348.00,902.72,348.54,7.19,2.77,909.91,351.32,38.368,–83.7061
KY,21071,Floyd,Prestonsburg,39451.00,1018.76,393.35,6.11,2.36,1024.87,395.71,37.558,–82.7403
KY,21073,Franklin,Frankfort,49285.00,538.06,207.75,11.04,4.26,549.10,212.01,38.235,–84.8687
KY,21075,Fulton,Hickman,6813.00,532.25,205.50,65.05,25.12,597.30,230.62,36.553,–89.1877
KY,21077,Gallatin,Warsaw,8589.00,262.20,101.23,9.02,3.48,271.22,104.72,38.760,–84.8621
KY,21079,Garrard,Lancaster,16912.00,595.90,230.08,10.02,3.87,605.92,233.95,37.630,–84.5458
KY,21081,Grant,Williamstown,24662.00,668.13,257.97,7.26,2.80,675.38,260.77,38.649,–84.6259
KY,21083,Graves,Mayfield,37121.00,1429.01,551.74,13.07,5.05,1442.07,556.79,36.723,–88.6498
KY,21085,Grayson,Leitchfield,25746.00,1286.44,496.70,37.12,14.33,1323.56,511.03,37.459,–86.3440
KY,21087,Green,Greensburg,11258.00,740.83,286.03,7.14,2.76,747.96,288.79,37.270,–85.5614
KY,21089,Greenup,Greenup,36910.00,891.98,344.40,26.04,10.05,918.02,354.45,38.564,–82.9338
KY,21091,Hancock,Hawesville,8565.00,486.02,187.65,29.10,11.23,515.11,198.89,37.843,–86.7927
KY,21093,Hardin,Elizabethtown,105543.00,1614.28,623.28,17.76,6.86,1632.05,630.14,37.696,–85.9631
KY,21095,Harlan,Harlan,29278.00,1206.49,465.83,6.02,2.32,1212.50,468.15,36.859,–83.2214
KY,21097,Harrison,Cynthiana,18846.00,793.48,306.36,9.06,3.50,802.54,309.86,38.443,–84.3327
KY,21099,Hart,Munfordville,18199.00,1067.30,412.09,14.93,5.76,1082.23,417.85,37.314,–85.8819
KY,21101,Henderson,Henderson,46250.00,1130.97,436.67,76.69,29.61,1207.66,466.28,37.793,–87.5725
KY,21103,Henry,New Castle,15416.00,741.45,286.28,12.55,4.85,754.00,291.12,38.452,–85.1200
KY,21105,Hickman,Clinton,4902.00,627.49,242.27,27.88,10.77,655.37,253.04,36.676,–88.9720
KY,21107,Hopkins,Madisonville,46920.00,1403.76,542.00,32.17,12.42,1435.93,554.42,37.311,–87.5421
KY,21109,Jackson,McKee,13494.00,894.07,345.20,3.40,1.31,897.46,346.51,37.403,–84.0206
KY,21111,Jefferson,Louisville,741096.00,985.27,380.42,44.72,17.27,1029.99,397.68,38.190,–85.6576
KY,21113,Jessamine,Nicholasville,48586.00,445.78,172.12,6.18,2.39,451.95,174.50,37.873,–84.5839
KY,21115,Johnson,Paintsville,23356.00,678.46,261.95,5.65,2.18,684.11,264.14,37.849,–82.8306
KY,21117,Kenton,"Covington, Independence",159720.00,415.05,160.25,10.61,4.10,425.66,164.35,38.930,–84.5334
KY,21119,Knott,Hindman,16346.00,910.43,351.52,3.45,1.33,913.88,352.85,37.355,–82.9491
KY,21121,Knox,Barbourville,31883.00,1000.51,386.30,3.76,1.45,1004.26,387.75,36.887,–83.8556
KY,21123,Larue,Hodgenville,14193.00,677.33,261.52,5.46,2.11,682.79,263.63,37.546,–85.6972
KY,21125,Laurel,London,58849.00,1123.93,433.95,25.23,9.74,1149.16,443.70,37.113,–84.1193
KY,21127,Lawrence,Louisa,15860.00,1076.39,415.60,11.59,4.47,1087.97,420.07,38.074,–82.7383
KY,21129,Lee,Beattyville,7887.00,540.94,208.86,6.22,2.40,547.15,211.26,37.605,–83.7184
KY,21131,Leslie,Hyden,11310.00,1038.18,400.84,9.33,3.60,1047.51,404.45,37.088,–83.3886
KY,21133,Letcher,Whitesburg,24519.00,875.19,337.91,2.90,1.12,878.09,339.03,37.119,–82.8611
KY,21135,Lewis,Vanceburg,13870.00,1250.54,482.84,32.49,12.55,1283.03,495.38,38.532,–83.3733
KY,21137,Lincoln,Stanford,24742.00,865.30,334.10,6.43,2.48,871.73,336.58,37.457,–84.6580
KY,21139,Livingston,Smithland,9519.00,811.00,313.13,75.65,29.21,886.64,342.33,37.210,–88.3634
KY,21141,Logan,Russellville,26835.00,1430.01,552.13,12.69,4.90,1442.70,557.03,36.860,–86.8814
KY,21143,Lyon,Eddyville,8314.00,553.84,213.84,110.56,42.69,664.41,256.53,37.024,–88.0833
KY,21145,McCracken,Richmond,65565.00,644.24,248.74,50.32,19.43,694.56,268.17,37.054,–88.7123
KY,21147,McCreary,Salyersville,18306.00,1105.42,426.80,10.73,4.14,1116.15,430.95,36.731,–84.4910
KY,21149,McLean,Lebanon,9531.00,653.91,252.47,9.74,3.76,663.64,256.23,37.531,–87.2629
KY,21151,Madison,Benton,82916.00,1132.58,437.29,15.45,5.96,1148.03,443.26,37.724,–84.2770
KY,21153,Magoffin,Inez,13333.00,798.87,308.44,1.85,0.71,800.71,309.16,37.699,–83.0697
KY,21155,Marion,Maysville,19820.00,888.39,343.01,9.97,3.85,898.36,346.86,37.552,–85.2692
KY,21157,Marshall,Paducah,31448.00,780.24,301.25,100.80,38.92,881.04,340.17,36.882,–88.3327
